time(millisecond),datetime(utc),latitude,longitude,height_above_takeoff(feet),height_above_ground_at_drone_location(feet),ground_elevation_at_drone_location(feet),altitude_above_seaLevel(feet),height_sonar(feet),speed(mph),distance(feet),satellites,gpslevel,voltage(v),max_altitude(feet),max_ascent(feet),max_speed(mph),max_distance(feet), xSpeed(mph), ySpeed(mph), zSpeed(mph), compass_heading(degrees), pitch(degrees), roll(degrees),isPhoto,isVideo,rc_elevator,rc_aileron,rc_throttle,rc_rudder,gimbal_heading(degrees),gimbal_pitch(degrees),battery_percent,voltageCell1,voltageCell2,voltageCell3,voltageCell4,voltageCell5,voltageCell6,current(A),battery_temperature(f),altitude(feet),ascent(feet),flycStateRaw,flycState,message,delta_height
0,29-08-17 5:05,51.11217048,9.01736717,0,Available with any HD 360 subscription,Available with any HD 360 subscription,91.78681298,0.656168,0,0,10,4,0,91.78681298,0,0,0,0,0,0,166.2,3.1,1.1,0,0,364,1684,364,364,162.5,0,99,4.206,4.157,4.165,0,0,0,0,84.74,91.78681298,0,6,P-GPS,,0
100,29-08-17 5:05,51.11217047,9.01736709,0,,,91.78681298,0.656168,0,0.029470277,10,4,0,91.78681298,0,0,0.029470277,0,0,0,166.2,3,1.1,0,0,364,1684,364,364,162.5,0,99,4.206,4.157,4.165,0,0,0,0,84.74,91.78681298,0,41,Motors_Started,,0
200,29-08-17 5:05,51.11217045,9.01736701,0,,,91.78681298,0.656168,0,0.058286419,10,4,0,91.78681298,0,0,0.058286419,0,0,0,166.2,3,1.1,0,0,364,1684,364,364,162.5,0,99,4.206,4.157,4.165,0,0,0,0,84.74,91.78681298,0,41,Motors_Started,,0
300,29-08-17 5:05,51.11217043,9.01736695,0,,,91.78681298,0.656168,0,0.081372706,10,4,0,91.78681298,0,0,0.081372706,0,0,0,166.2,3.1,1.1,0,0,364,1684,364,364,162.5,0,99,4.206,4.157,4.165,0,0,0,0,84.74,91.78681298,0,41,Motors_Started,,0
400,29-08-17 5:05,51.1121704,9.01736688,0,,,91.78681298,0.656168,0,0.106264767,10,4,0,91.78681298,0,0,0.106264767,0,0,0,166.2,3.1,1.1,0,0,364,1684,364,364,162.5,0,99,4.206,4.157,4.165,0,0,0,0,84.74,91.78681298,0,41,Motors_Started,,0
500,29-08-17 5:05,51.11217036,9.01736679,0,,,91.78681298,0.656168,0,0.140945543,10,4,0,91.78681298,0,0,0.140945543,0,0,0,165.9,3,1.1,0,0,399,1684,1024,963,162.5,0,99,4.206,4.157,4.165,0,0,0,0,84.74,91.78681298,0,41,Motors_Started,,0
600,29-08-17 5:05,51.11217031,9.01736671,0,,,91.78681298,0.656168,0,0.173112866,10,4,0,91.78681298,0,0,0.173112866,0,0,0,165,3,1.1,0,0,1024,1024,1024,1024,163.8,0,99,4.206,4.157,4.165,0,0,0,0,84.74,91.78681298,0,41,Motors_Started,,0
700,29-08-17 5:05,51.1121703,9.01736665,0,,,91.78681298,0.656168,0,0.193712277,10,4,0,91.78681298,0,0,0.193712277,0,0,0,164.9,3.1,1,0,0,1024,1024,1024,1024,164.1,0,99,4.206,4.157,4.165,0,0,0,0,84.74,91.78681298,0,41,Motors_Started,,0
800,29-08-17 5:05,51.11217028,9.01736658,0,,,91.78681298,0.656168,0,0.219032815,10,4,0,91.78681298,0,0,0.219032815,0,0,0,164.8,3.1,1.1,0,0,1024,1024,1024,1024,164.2,0,99,4.206,4.157,4.165,0,0,0,0,84.74,91.78681298,0,41,Motors_Started,Setting new Return-To-Home altitude to 35m (115 ft). Data Recorder File Index is 169. Setting new Maximum Flight Altitude to 450m (1476 ft),0
900,29-08-17 5:05,51.11217026,9.01736649,0,,,91.78681298,0.656168,0,0.251948827,10,4,0,91.78681298,0,0,0.251948827,0,0,0,164.7,3,1.1,0,0,1024,1024,1024,1024,164.3,0,99,4.206,4.157,4.165,0,0,0,0,84.74,91.78681298,0,41,Motors_Started,,0
1000,29-08-17 5:05,51.11217023,9.01736641,0,,,91.78681298,0.656168,0,0.283268382,10,4,0,91.78681298,0,0,0.283268382,0,0,0,164.4,3,1.2,0,0,1024,1024,1024,1024,164.3,0,99,4.206,4.157,4.165,0,0,0,0,84.74,91.78681298,0,41,Motors_Started,,0
1100,29-08-17 5:05,51.11217019,9.01736635,0,,,91.78681298,0.656168,0,0.309582359,10,4,0,91.78681298,0,0,0.309582359,0,0,0,164.3,3.1,1.2,0,0,1024,1024,1024,1024,164.3,0,99,4.206,4.157,4.165,0,0,0,0,84.74,91.78681298,0,41,Motors_Started,,0
1200,29-08-17 5:05,51.11217015,9.01736628,0,,,91.78681298,0.656168,0,0.337096467,10,4,0,91.78681298,0,0,0.337096467,0,0,0,164.3,3.1,1.1,0,0,1024,1024,1024,1024,164.3,0,99,4.206,4.157,4.165,0,0,0,0,84.74,91.78681298,0,41,Motors_Started,,0
1300,29-08-17 5:05,51.11217014,9.01736623,0,,,91.78681298,0.656168,0,0.354160116,10,4,12.619,91.78681298,0,0,0.354160116,0,0,0,164.3,3.1,1.1,0,0,1024,1024,1024,1024,164.3,0,99,4.206,4.157,4.165,0,0,0,3.194,84.74,91.78681298,0,10,Assisted_Takeoff,,0
1400,29-08-17 5:05,51.11217012,9.01736617,0,,,91.78681298,0.656168,0,0.375232952,9,4,12.619,91.78681298,0,0,0.375232952,0,0,0,164.2,3,1.2,0,0,1024,1024,1024,1024,164.3,0,99,4.206,4.157,4.165,0,0,0,3.194,84.74,91.78681298,0,10,Assisted_Takeoff,,0
1500,29-08-17 5:05,51.11217009,9.01736609,0,,,91.78681298,0.656168,0,0.406335315,9,4,12.619,91.78681298,0,0,0.406335315,0,0,0,164.2,3,1.1,0,0,1024,1024,1024,1024,164.3,0,99,4.206,4.157,4.165,0,0,0,3.194,84.74,91.78681298,0,10,Assisted_Takeoff,,0
1600,29-08-17 5:05,51.11217006,9.01736601,0,,,91.78681298,0.656168,0,0.437103032,9,4,12.619,91.78681298,0,0,0.437103032,0,0,0,164.2,3,1.2,0,0,1024,1024,1024,1024,164.3,0,99,4.206,4.157,4.165,0,0,0,3.194,84.74,91.78681298,0,10,Assisted_Takeoff,,0
1700,29-08-17 5:05,51.11217005,9.01736595,0,,,91.78681298,0.656168,0,0.458103689,9,4,12.619,91.78681298,0,0,0.458103689,0,0,0,164.2,3.1,1.1,0,0,1024,1024,1024,1024,164.3,0,99,4.206,4.157,4.165,0,0,0,3.194,84.74,91.78681298,0,10,Assisted_Takeoff,,0
1800,29-08-17 5:05,51.11217003,9.01736589,0,,,91.78681298,0.656168,0,0.48181432,9,4,12.619,91.78681298,0,0,0.48181432,0,0,0,164.2,3.1,1.1,0,0,1024,1024,1024,1024,164.3,0,99,4.206,4.157,4.165,0,0,0,3.194,84.74,91.78681298,0,10,Assisted_Takeoff,,0
1900,29-08-17 5:05,51.11217,9.0173658,0,,,91.78681298,0.656168,0,0.516026919,9,4,12.619,91.78681298,0,0,0.516026919,0,0,0,164.2,3,1.1,0,0,1024,1024,1024,1024,164.3,0,99,4.206,4.157,4.165,0,0,0,3.194,84.74,91.78681298,0,10,Assisted_Takeoff,,0
2000,29-08-17 5:05,51.11216997,9.01736571,0,,,91.78681298,0.656168,0,0.549087944,9,4,12.619,91.78681298,0,0,0.549087944,0,0,0,164.2,3.1,1.1,0,0,1024,1024,1024,1024,164.3,0,99,4.206,4.157,4.165,0,0,0,3.194,84.74,91.78681298,0,10,Assisted_Takeoff,,0
2100,29-08-17 5:05,51.11216992,9.01736565,0,,,91.78681298,0.656168,0,0.577021016,9,4,12.619,91.78681298,0,0,0.577021016,0,0,0,164.2,3,1.2,0,0,1024,1024,1024,1024,164.3,0,99,4.206,4.157,4.165,0,0,0,3.194,84.74,91.78681298,0,10,Assisted_Takeoff,,0
2200,29-08-17 5:05,51.11216987,9.01736558,0,,,91.78681298,0.656168,0,0.605876004,9,4,12.619,91.78681298,0,0,0.605876004,0,0,0,164.2,3.1,1.1,0,0,1024,1024,1045,1024,164.3,0,99,4.206,4.157,4.165,0,0,0,3.194,84.74,91.78681298,0,10,Assisted_Takeoff,,0
2300,29-08-17 5:05,51.11216981,9.01736553,0,,,91.78681298,0.656168,0,0.629865506,9,4,12.64,91.78681298,0,0,0.629865506,0,0,0,164.2,3.1,1.1,0,0,1024,1024,1282,1024,164.3,0,99,4.206,4.157,4.165,0,0,0,3.194,84.74,91.78681298,0,10,Assisted_Takeoff,,0
2400,29-08-17 5:05,51.11216976,9.01736547,0,,,91.78681298,0.656168,0,0.656302514,9,4,12.64,91.78681298,0,0,0.656302514,0,0,0,164.2,3,1.1,0,0,1024,1024,1496,1024,164.3,0,99,4.206,4.157,4.165,0,0,0,3.194,84.74,91.78681298,0,10,Assisted_Takeoff,,0
2500,29-08-17 5:05,51.11216974,9.01736543,0,,,91.78681298,0.656168,0,0.672549234,10,4,12.64,91.78681298,0,0,0.672549234,0,0,0,164.2,3,1.1,0,0,1024,1024,1496,1024,164.3,0,99,4.206,4.157,4.165,0,0,0,3.194,84.74,91.78681298,0,10,Assisted_Takeoff,,0
2600,29-08-17 5:05,51.11216971,9.01736538,0,,,91.78681298,0.656168,0,0.693444904,10,4,12.64,91.78681298,0,0,0.693444904,0,0,0,164.2,3.1,1.1,0,0,1024,1024,1554,1024,164.3,0,99,4.206,4.157,4.165,0,0,0,3.194,84.74,91.78681298,0,10,Assisted_Takeoff,,0
2700,29-08-17 5:05,51.11216971,9.0173653,0,,,91.78681298,0.656168,0,0.717693593,10,4,12.64,91.78681298,0,0,0.717693593,0,0,0,164.1,3,1.1,0,0,1024,1024,1603,1024,164.3,0,99,4.206,4.157,4.165,0,0,0,3.194,84.74,91.78681298,0,10,Assisted_Takeoff,,0
2800,29-08-17 5:05,51.11216971,9.01736522,0,,,91.78681298,0.656168,0,0.744458685,10,4,12.64,91.78681298,0,0,0.744458685,0,0,0,163.9,2.9,1.1,0,0,1024,1024,1603,1024,164.3,0,99,4.206,4.157,4.165,0,0,0,3.194,84.74,91.78681298,0,10,Assisted_Takeoff,,0
2900,29-08-17 5:05,51.1121697,9.01736519,0,,,91.78681298,0.656168,0,0.754763804,10,4,12.64,91.78681298,0,0,0.754763804,0,0,0,163.9,1.3,1,0,0,1024,1024,1656,1024,164.2,0,99,4.206,4.157,4.165,0,0,0,3.194,84.74,91.78681298,0,10,Assisted_Takeoff,,0
3000,29-08-17 5:05,51.11216971,9.01736514,0,,,91.78681298,0.656168,0,0.772083358,10,4,12.64,91.78681298,0,0,0.772083358,0,0,-0.223694,163.6,-0.4,0.8,0,0,1024,1024,1674,1024,164.2,0,99,4.206,4.157,4.165,0,0,0,3.194,84.74,91.78681298,0,10,Assisted_Takeoff,,0
3100,29-08-17 5:05,51.11216973,9.01736504,0,,,91.78681298,0.656168,0.223694,0.800301863,10,4,12.64,91.78681298,0,0.223694,0.800301863,0.223694,0,-0.671082,163.9,-0.3,0.5,0,0,1024,1024,1677,1024,164.2,0,99,4.206,4.157,4.165,0,0,0,3.194,84.74,91.78681298,0,6,P-GPS,,0
3200,29-08-17 5:05,51.11216974,9.01736494,0,,,91.78681298,0.656168,0,0.833297271,10,4,12.64,91.78681298,0,0.223694,0.833297271,0,0,-0.894776,164,0,0.1,0,0,1024,1024,1679,1024,164.2,0,99,4.206,4.157,4.165,0,0,0,3.194,84.74,91.78681298,0,6,P-GPS,,0
3300,29-08-17 5:05,51.11216978,9.01736446,0,,,91.78681298,0.984252,0,0.992122735,10,4,12.403,91.78681298,0,0.223694,0.992122735,0,0,-1.342164,164.2,0,-0.4,0,0,1024,1024,1684,1024,164.2,0,99,4.223,4.217,4.217,0,0,0,1.614,84.74,91.78681298,0,6,P-GPS,,0.328084
3400,29-08-17 5:05,51.1121698,9.01736411,0.328084,,,92.11489698,1.312336,0,1.112926545,10,4,12.403,92.11489698,0.328084,0.223694,1.112926545,0,0,-1.789552,164.1,0.4,-0.3,0,0,1024,1024,1684,1024,164.2,0,99,4.223,4.217,4.217,0,0,0,1.614,84.74,92.11489698,0.328084,6,P-GPS,,0.328084
3500,29-08-17 5:05,51.11216982,9.01736378,0.656168,,,92.44298098,1.64042,0,1.223992821,10,4,12.403,92.44298098,0.656168,0.223694,1.223992821,0,0,-2.23694,164.1,0.1,0,0,0,1024,1024,1684,1024,164.2,0,99,4.223,4.217,4.217,0,0,0,1.614,84.74,92.44298098,0.656168,6,P-GPS,,0.328084
3600,29-08-17 5:05,51.11216983,9.01736353,0.984252,,,92.77106498,1.968504,0,1.310751354,10,4,12.403,92.77106498,0.984252,0.223694,1.310751354,0,0,-2.684328,164.1,0.3,0.3,0,0,1024,1024,1684,1024,164.2,0,99,4.223,4.217,4.217,0,0,0,1.614,84.74,92.77106498,0.984252,6,P-GPS,,0.328084
3700,29-08-17 5:05,51.11216972,9.01736281,1.312336,,,93.09914898,2.296588,0.223694,1.570259237,10,4,12.403,93.09914898,1.312336,0.223694,1.570259237,-0.223694,0,-3.35541,163.9,0.7,0.2,0,0,1024,1024,1684,1024,164.2,0,99,4.223,4.217,4.217,0,0,0,1.614,84.74,93.09914898,1.312336,6,P-GPS,,0.656168
3800,29-08-17 5:05,51.11216963,9.01736226,1.968504,,,93.75531698,0,0.223694,1.767477091,10,4,12.403,93.75531698,1.968504,0.223694,1.767477091,-0.223694,0,-4.250186,164,1.4,0.1,0,0,1024,1024,1684,1024,164.2,0,99,4.223,4.217,4.217,0,0,0,1.614,84.74,93.75531698,1.968504,6,P-GPS,Home Point Recorded. RTH Altitude:  35m.,0.656168
3900,29-08-17 5:05,51.11216962,9.01736164,2.624672,,,94.41148498,0,0.223694,1.982244158,10,4,12.403,94.41148498,2.624672,0.223694,1.982244158,0,0,-5.144962,164,2.1,0,0,0,1031,1024,1684,1024,164.2,0,99,4.223,4.217,4.217,0,0,0,1.614,84.74,94.41148498,2.624672,6,P-GPS,,0.984252
4000,29-08-17 5:05,51.11216964,9.01736113,3.608924,,,95.39573698,3.937008,0,2.161620804,10,4,12.403,95.39573698,3.608924,0.223694,2.161620804,0,0,-6.039738,163.8,2,0.1,0,0,1038,1024,1684,1024,164.2,0,99,4.223,4.217,4.217,0,0,0,1.614,84.74,95.39573698,3.608924,6,P-GPS,,0.984252
4100,29-08-17 5:05,51.11216971,9.01736072,4.593176,,,96.37998898,4.92126,0,2.301512541,10,4,12.403,96.37998898,4.593176,0.223694,2.301512541,0,0,-6.934514,163.8,1.1,0.2,0,0,1038,1024,1684,1024,164.2,0,99,4.223,4.217,4.217,0,0,0,1.614,84.74,96.37998898,4.593176,6,P-GPS,,0.984252
4200,29-08-17 5:05,51.1121698,9.01736035,5.577428,,,97.36424098,5.577428,0,2.426643778,10,4,12.403,97.36424098,5.577428,0.223694,2.426643778,0,0,-7.605596,163.8,0.7,0,0,0,1041,1024,1684,1024,164.2,0,99,4.223,4.217,4.217,0,0,0,1.614,84.74,97.36424098,5.577428,6,P-GPS,,1.312336
4300,29-08-17 5:05,51.11216968,9.01736038,6.889764,,,98.67657698,6.56168,0,2.423339973,10,4,12.209,98.67657698,6.889764,0.223694,2.426643778,0,0,-8.500372,163.9,0,0,0,0,1047,1024,1684,1024,164.2,0,99,4.005,3.999,3.986,0,0,0,11.27,84.74,98.67657698,6.889764,6,P-GPS,,1.312336
4400,29-08-17 5:05,51.11216961,9.01736032,8.2021,,,99.98891298,7.874016,0.223694,2.445525013,10,4,12.209,99.98891298,8.2021,0.223694,2.445525013,0.223694,0,-8.94776,164,-1.1,0.3,0,0,1078,1024,1684,1024,164.2,0,99,4.005,3.999,3.986,0,0,0,11.27,84.74,99.98891298,8.2021,6,P-GPS,,1.312336
4500,29-08-17 5:05,51.11216944,9.01736029,9.514436,,,101.301249,9.186352,0,2.466699554,10,4,12.209,101.301249,9.514436,0.223694,2.466699554,0,0,-9.395148,164.2,-1,0.4,0,0,1078,1024,1684,1024,164.2,0,99,4.005,3.999,3.986,0,0,0,11.27,84.74,101.301249,9.514436,6,P-GPS,,1.64042
4600,29-08-17 5:05,51.11216929,9.01736021,11.154856,,,102.941669,10.498688,0,2.503878033,10,4,12.209,102.941669,11.154856,0.223694,2.503878033,0,0,-9.395148,164.1,-0.6,0.5,0,0,1077,1024,1684,1024,164.2,0,99,4.005,3.999,3.986,0,0,0,11.27,84.74,102.941669,11.154856,6,P-GPS,,1.312336
4700,29-08-17 5:05,51.11216907,9.01736022,12.467192,,,104.254005,11.811024,0,2.514383283,10,4,12.209,104.254005,12.467192,0.223694,2.514383283,0,0,-9.395148,164,-0.4,0.6,0,0,1077,1024,1684,1024,164.2,0,99,4.005,3.999,3.986,0,0,0,11.27,84.74,104.254005,12.467192,6,P-GPS,,1.312336
4800,29-08-17 5:05,51.11216887,9.01736019,13.779528,,,105.566341,13.12336,0,2.542775672,10,4,12.209,105.566341,13.779528,0.223694,2.542775672,0,0,-9.395148,164,-0.3,0.5,0,0,1059,1024,1684,1024,164.2,0,99,4.005,3.999,3.986,0,0,0,11.27,84.74,105.566341,13.779528,6,P-GPS,,1.312336
4900,29-08-17 5:05,51.11216884,9.01736032,15.091864,,,106.878677,14.435696,0,2.498809135,10,4,12.209,106.878677,15.091864,0.223694,2.542775672,0,0,-9.171454,164.1,-0.1,0.2,0,0,1055,1024,1684,1024,164.2,0,99,4.005,3.999,3.986,0,0,0,11.27,84.74,106.878677,15.091864,6,P-GPS,,1.312336
5000,29-08-17 5:05,51.11216876,9.01736039,16.4042,,,108.191013,15.748032,0,2.481633938,10,4,12.209,108.191013,16.4042,0.223694,2.542775672,0,0,-9.171454,164.2,0.2,0,0,0,1051,1024,1684,1024,164.2,0,99,4.005,3.999,3.986,0,0,0,11.27,84.74,108.191013,16.4042,6,P-GPS,,1.64042
5100,29-08-17 5:05,51.11216881,9.01736055,18.04462,,,109.831433,17.060368,0.223694,2.423536823,10,4,12.209,109.831433,18.04462,0.223694,2.542775672,0,0.223694,-8.94776,164.3,0.1,0.5,0,0,1033,1024,1684,1024,164.2,0,99,4.005,3.999,3.986,0,0,0,11.27,84.74,109.831433,18.04462,6,P-GPS,,1.312336
5200,29-08-17 5:05,51.11216879,9.01736065,19.356956,,,111.143769,18.372704,0.223694,2.390105063,10,4,12.209,111.143769,19.356956,0.223694,2.542775672,0,0.223694,-8.94776,164.2,0.4,0.3,0,0,1024,1024,1684,1024,164.2,0,99,4.005,3.999,3.986,0,0,0,11.27,84.74,111.143769,19.356956,6,P-GPS,,1.312336
5300,29-08-17 5:05,51.11216902,9.017361,20.669292,,,112.456105,19.68504,0.223694,2.249186424,10,4,11.928,112.456105,20.669292,0.223694,2.542775672,0,0.223694,-8.94776,163.9,0.5,0.6,0,0,1024,1024,1684,1024,164.2,0,99,3.97,3.968,3.962,0,0,0,11.866,84.74,112.456105,20.669292,6,P-GPS,,1.312336
5400,29-08-17 5:05,51.11216915,9.01736125,21.981628,,,113.768441,20.997376,0.223694,2.151378022,10,4,11.928,113.768441,21.981628,0.223694,2.542775672,0,0.223694,-8.94776,163.8,0.8,1.5,0,0,1024,1024,1684,1024,164.2,0,99,3.97,3.968,3.962,0,0,0,11.866,84.74,113.768441,21.981628,6,P-GPS,,1.312336
5500,29-08-17 5:05,51.11216949,9.0173615,23.293964,,,115.080777,22.309712,0.223694,2.03974416,10,4,11.928,115.080777,23.293964,0.223694,2.542775672,0,0.223694,-8.94776,163.9,0.5,2,0,0,1024,1024,1684,1024,164.2,0,99,3.97,3.968,3.962,0,0,0,11.866,84.74,115.080777,23.293964,6,P-GPS,,0.656168
5600,29-08-17 5:05,51.11216971,9.01736167,23.950132,,,115.736945,23.622048,0,1.967772373,10,4,11.928,115.736945,23.950132,0.223694,2.542775672,0,0,-8.276678,164.1,0,1.4,0,0,1024,1024,1684,1024,164.2,0,99,3.97,3.968,3.962,0,0,0,11.866,84.74,115.736945,23.950132,6,P-GPS,,1.312336
5700,29-08-17 5:05,51.1121702,9.01736197,25.262468,,,117.049281,24.6063,0,1.845833392,10,4,11.928,117.049281,25.262468,0.223694,2.542775672,0,0,-8.052984,164,0.4,1.4,0,0,1024,1024,1684,1024,164.2,0,99,3.97,3.968,3.962,0,0,0,11.866,84.74,117.049281,25.262468,6,P-GPS,,0.984252
5800,29-08-17 5:05,51.11217053,9.01736218,26.24672,,,118.033533,25.918636,0,1.766912786,10,4,11.928,118.033533,26.24672,0.223694,2.542775672,0,0,-7.82929,164,0.8,1.1,0,0,1024,1024,1684,1024,164.2,0,99,3.97,3.968,3.962,0,0,0,11.866,84.74,118.033533,26.24672,6,P-GPS,,1.312336
5900,29-08-17 5:05,51.11217094,9.01736247,27.559056,,,119.345869,27.230972,0,1.674271707,10,4,11.928,119.345869,27.559056,0.223694,2.542775672,0,0,-7.82929,164.2,0.7,0.9,0,0,1024,1024,1684,1024,164.2,0,99,3.97,3.968,3.962,0,0,0,11.866,84.74,119.345869,27.559056,6,P-GPS,,0.984252
6000,29-08-17 5:05,51.11217126,9.01736268,28.543308,,,120.330121,28.543308,0,1.614471836,10,4,11.928,120.330121,28.543308,0.223694,2.542775672,0,0,-7.82929,164.1,0.4,1,0,0,1024,1024,1684,1024,164.2,0,99,3.97,3.968,3.962,0,0,0,11.866,84.74,120.330121,28.543308,6,P-GPS,,1.312336
6100,29-08-17 5:05,51.11217167,9.01736283,29.855644,,,121.642457,29.855644,0,1.596620786,10,4,11.928,121.642457,29.855644,0.223694,2.542775672,0,0,-8.052984,164,0.1,0.9,0,0,1024,1024,1684,1024,164.2,0,99,3.97,3.968,3.962,0,0,0,11.866,84.74,121.642457,29.855644,6,P-GPS,,0.984252
6200,29-08-17 5:05,51.11217199,9.01736296,30.839896,,,122.626709,31.16798,0,1.590554513,10,4,11.928,122.626709,30.839896,0.223694,2.542775672,0,0,-8.276678,164.2,0,0.8,0,0,1024,1024,1684,1024,164.2,0,99,3.97,3.968,3.962,0,0,0,11.866,84.74,122.626709,30.839896,6,P-GPS,,1.312336
6300,29-08-17 5:05,51.11217232,9.01736299,32.152232,,,123.939045,32.152232,0,1.626141784,10,4,11.82,123.939045,32.152232,0.223694,2.542775672,0,0,-8.276678,164.1,-0.3,0.8,0,0,1024,1024,1684,1024,164.2,0,99,3.97,3.968,3.962,0,0,0,11.866,84.74,123.939045,32.152232,6,P-GPS,,1.312336
6400,29-08-17 5:05,51.11217258,9.01736304,33.464568,,,125.251381,33.464568,0,1.652106352,10,4,11.82,125.251381,33.464568,0.223694,2.542775672,0,0,-8.052984,164.1,0.2,0.6,0,0,1024,1024,1684,1024,164.2,0,99,3.97,3.968,3.962,0,0,0,11.866,84.74,125.251381,33.464568,6,P-GPS,,0.984252
6500,29-08-17 5:05,51.11217278,9.01736306,34.44882,,,126.235633,34.44882,0,1.680692311,10,4,11.82,126.235633,34.44882,0.223694,2.542775672,0,0,-8.276678,164.3,0.6,0.2,0,0,1024,1024,1684,1024,164.2,0,99,3.97,3.968,3.962,0,0,0,11.866,84.74,126.235633,34.44882,6,P-GPS,,1.312336
6600,29-08-17 5:05,51.11217296,9.01736311,35.761156,,,127.547969,35.433072,0,1.700433125,10,4,11.82,127.547969,35.761156,0.223694,2.542775672,0,0,-8.276678,164.1,0.8,0.7,0,0,1024,1024,1684,1024,164.2,0,99,3.97,3.968,3.962,0,0,0,11.866,84.74,127.547969,35.761156,6,P-GPS,,1.312336
6700,29-08-17 5:05,51.11217313,9.01736318,37.073492,,,128.860305,36.417324,0,1.711558454,10,4,11.82,128.860305,37.073492,0.223694,2.542775672,0,0,-8.276678,164.2,1,0.9,0,0,1024,1024,1684,1024,164.2,0,99,3.97,3.968,3.962,0,0,0,11.866,84.74,128.860305,37.073492,6,P-GPS,,0.984252
6800,29-08-17 5:05,51.1121733,9.01736326,38.057744,,,129.844557,37.073492,0,1.725193625,10,4,11.82,129.844557,38.057744,0.223694,2.542775672,0,0,-8.276678,164.2,1.2,0,0,0,1024,1024,1684,1024,164.2,0,99,3.97,3.968,3.962,0,0,0,11.866,84.74,129.844557,38.057744,6,P-GPS,,1.312336
6900,29-08-17 5:05,51.1121736,9.01736345,39.37008,,,131.156893,37.72966,0,1.742851106,10,4,11.82,131.156893,39.37008,0.223694,2.542775672,0,0,-8.276678,164,0.9,0.3,0,0,1024,1024,1684,1024,164.2,0,99,3.97,3.968,3.962,0,0,0,11.866,84.74,131.156893,39.37008,6,P-GPS,,1.312336
7000,29-08-17 5:05,51.11217388,9.01736362,40.682416,,,132.469229,38.713912,0,1.767306487,10,4,11.82,132.469229,40.682416,0.223694,2.542775672,0,0,-8.500372,164,0.5,1.2,0,0,1024,1024,1684,1024,164.2,0,99,3.97,3.968,3.962,0,0,0,11.866,84.74,132.469229,40.682416,6,P-GPS,,1.312336
7100,29-08-17 5:05,51.1121741,9.01736383,41.994752,,,133.781565,39.37008,0,1.771788114,10,4,11.82,133.781565,41.994752,0.223694,2.542775672,0,0,-8.500372,164.2,0.7,2.1,0,0,1024,1024,1684,1024,164.2,0,99,3.97,3.968,3.962,0,0,0,11.866,84.74,133.781565,41.994752,6,P-GPS,,1.312336
7200,29-08-17 5:05,51.11217431,9.01736401,43.307088,,,135.093901,40.026248,0,1.790629979,10,4,11.82,135.093901,43.307088,0.223694,2.542775672,0,0,-8.276678,164,0.6,2.8,0,0,1024,1024,1684,1125,164.2,0,99,3.97,3.968,3.962,0,0,0,11.866,84.74,135.093901,43.307088,6,P-GPS,,0.984252
7300,29-08-17 5:05,51.11217455,9.01736407,44.29134,,,136.078153,40.354332,0,1.846279587,10,4,11.907,136.078153,44.29134,0.223694,2.542775672,0,0,-8.276678,164.2,0.1,1.8,0,0,1024,1024,1684,1160,164.4,0,99,3.945,3.943,3.935,0,0,0,11.908,84.92,136.078153,44.29134,6,P-GPS,,1.312336
7400,29-08-17 5:05,51.11217477,9.01736413,45.603676,,,137.390489,41.0105,0,1.899081426,10,4,11.907,137.390489,45.603676,0.223694,2.542775672,0,0,-8.276678,164.1,0.2,1.5,0,0,1024,1024,1684,1161,164.6,0,99,3.945,3.943,3.935,0,0,0,11.908,84.92,137.390489,45.603676,6,P-GPS,,1.312336
7500,29-08-17 5:05,51.11217495,9.01736416,46.916012,,,138.702825,42.322836,0,1.949829459,10,4,11.907,138.702825,46.916012,0.223694,2.542775672,0,0,-8.276678,164.2,1.2,1.8,0,0,1024,1024,1684,1197,165,0,99,3.945,3.943,3.935,0,0,0,11.908,84.92,138.702825,46.916012,6,P-GPS,,0.984252
7600,29-08-17 5:05,51.11217514,9.01736417,47.900264,,,139.687077,43.635172,0,2.00314639,10,4,11.907,139.687077,47.900264,0.223694,2.542775672,0,0,-8.052984,164.5,1.6,0.8,0,0,1024,1024,1684,1209,165.3,0,99,3.945,3.943,3.935,0,0,0,11.908,84.92,139.687077,47.900264,6,P-GPS,,1.312336
7700,29-08-17 5:05,51.11217526,9.01736412,49.2126,,,140.999413,44.619424,0,2.051328806,10,4,11.907,140.999413,49.2126,0.223694,2.542775672,0,0,-8.052984,164.7,0.5,1.2,0,0,1024,1024,1684,1211,166,0,99,3.945,3.943,3.935,0,0,0,11.908,84.92,140.999413,49.2126,6,P-GPS,,1.312336
7800,29-08-17 5:05,51.11217541,9.01736408,50.524936,,,142.311749,45.93176,0,2.105767784,10,4,11.907,142.311749,50.524936,0.223694,2.542775672,0,0,-8.276678,165.1,-1.2,1,0,0,1024,1024,1684,1218,166.7,0,99,3.945,3.943,3.935,0,0,0,11.908,84.92,142.311749,50.524936,6,P-GPS,,1.312336
7900,29-08-17 5:05,51.11217558,9.01736401,51.837272,,,143.624085,47.244096,0,2.171509256,10,4,11.907,143.624085,51.837272,0.223694,2.542775672,0,0,-8.500372,165.7,0.2,0.7,0,0,1024,1024,1684,1217,167.4,0,99,3.945,3.943,3.935,0,0,0,11.908,84.92,143.624085,51.837272,6,P-GPS,,1.312336
8000,29-08-17 5:05,51.11217571,9.01736396,53.149608,,,144.936421,48.556432,0,2.220213326,10,4,11.907,144.936421,53.149608,0.223694,2.542775672,0,0,-8.724066,166.5,1.2,0.3,0,0,1024,1024,1684,1217,168.1,0,99,3.945,3.943,3.935,0,0,0,11.908,84.92,144.936421,53.149608,6,P-GPS,,1.312336
8100,29-08-17 5:05,51.11217579,9.01736389,54.461944,,,146.248757,49.868768,0,2.258769757,10,4,11.907,146.248757,54.461944,0.223694,2.542775672,0,0,-8.724066,167.3,2,0.3,0,0,1024,1024,1684,1215,168.8,0,99,3.945,3.943,3.935,0,0,0,11.908,84.92,146.248757,54.461944,6,P-GPS,,1.312336
8200,29-08-17 5:05,51.11217588,9.01736384,55.77428,,,147.561093,51.181104,0,2.298097186,10,4,11.907,147.561093,55.77428,0.223694,2.542775672,0,0,-8.94776,168,2.2,0.6,0,0,1024,1024,1684,1214,169.5,0,99,3.945,3.943,3.935,0,0,0,11.908,84.92,147.561093,55.77428,6,P-GPS,,1.312336
8300,29-08-17 5:05,51.11217589,9.01736376,57.086616,,,148.873429,52.49344,0,2.314845875,10,4,11.734,148.873429,57.086616,0.223694,2.542775672,0,0,-8.94776,168.6,2,0,0,0,1024,1024,1684,1212,170.2,0,99,3.907,3.903,3.89,0,0,0,13.184,84.92,148.873429,57.086616,6,P-GPS,,1.312336
8400,29-08-17 5:05,51.11217594,9.0173637,58.398952,,,150.185765,0,0,2.340823566,10,4,11.734,150.185765,58.398952,0.223694,2.542775672,0,0,-8.94776,169.4,1.8,-0.3,0,0,1024,1024,1684,1212,170.9,0,99,3.907,3.903,3.89,0,0,0,13.184,84.92,150.185765,58.398952,6,P-GPS,,1.312336
8500,29-08-17 5:05,51.11217596,9.01736352,59.711288,,,151.498101,0,0,2.380633278,10,4,11.734,151.498101,59.711288,0.223694,2.542775672,0,0,-9.171454,170.1,-0.1,0.1,0,0,1024,1024,1684,1212,171.6,0,99,3.907,3.903,3.89,0,0,0,13.184,84.92,151.498101,59.711288,6,P-GPS,,1.64042
8600,29-08-17 5:05,51.11217598,9.01736341,61.351708,,,153.138521,0,0,2.408661494,10,4,11.734,153.138521,61.351708,0.223694,2.542775672,0,0,-9.395148,171.2,0.2,2.1,0,0,1024,1024,1684,1212,172.3,0,99,3.907,3.903,3.89,0,0,0,13.184,84.92,153.138521,61.351708,6,P-GPS,,1.312336
8700,29-08-17 5:05,51.11217597,9.01736334,62.664044,,,154.450857,0,0.223694,2.417231048,10,4,11.734,154.450857,62.664044,0.223694,2.542775672,-0.223694,0,-9.395148,171.6,1.4,2.4,0,0,1024,1024,1684,1213,173,0,99,3.907,3.903,3.89,0,0,0,13.184,84.92,154.450857,62.664044,6,P-GPS,,1.312336
8800,29-08-17 5:05,51.11217594,9.01736328,63.97638,,,155.763193,0,0.223694,2.423645091,10,4,11.734,155.763193,63.97638,0.223694,2.542775672,-0.223694,0,-9.171454,172.3,2.8,2.1,0,0,1024,1024,1684,1212,173.7,0,99,3.907,3.903,3.89,0,0,0,13.184,84.92,155.763193,63.97638,6,P-GPS,,1.64042
8900,29-08-17 5:05,51.11217591,9.01736321,65.6168,,,157.403613,0,0,2.426505983,10,4,11.734,157.403613,65.6168,0.223694,2.542775672,0,0,-9.171454,172.9,3.5,1,0,0,1024,1024,1684,1214,174.3,0,99,3.907,3.903,3.89,0,0,0,13.184,84.92,157.403613,65.6168,6,P-GPS,,1.312336
9000,29-08-17 5:05,51.11217591,9.01736314,66.929136,,,158.715949,0,0,2.441748766,10,4,11.734,158.715949,66.929136,0.223694,2.542775672,0,0,-9.395148,173.5,2.6,0.8,0,0,1024,1024,1684,1215,175,0,99,3.907,3.903,3.89,0,0,0,13.184,84.92,158.715949,66.929136,6,P-GPS,,1.64042
9100,29-08-17 5:05,51.11217598,9.01736302,68.569556,,,160.356369,0,0,2.486423964,10,4,11.734,160.356369,68.569556,0.223694,2.542775672,0,0,-9.395148,174.2,1.8,0.9,0,0,1024,1024,1684,1215,175.7,0,99,3.907,3.903,3.89,0,0,0,13.184,84.92,160.356369,68.569556,6,P-GPS,,1.312336
9200,29-08-17 5:05,51.11217604,9.01736292,69.881892,,,161.668705,0,0,2.52523302,10,4,11.734,161.668705,69.881892,0.223694,2.542775672,0,0,-9.171454,174.9,1.1,1,0,0,1024,1024,1684,1225,176.4,0,99,3.907,3.903,3.89,0,0,0,13.184,84.92,161.668705,69.881892,6,P-GPS,,1.64042
9300,29-08-17 5:05,51.11217607,9.01736289,71.522312,,,163.309125,0,0,2.540275672,10,4,11.95,163.309125,71.522312,0.223694,2.542775672,0,0,-9.171454,175.8,1.1,1.3,0,0,1024,1024,1684,1241,177.2,0,99,3.907,3.903,3.89,0,0,0,13.184,84.92,163.309125,71.522312,6,P-GPS,,1.312336
9400,29-08-17 5:05,51.11217607,9.01736286,72.834648,,,164.621461,0,0,2.546745488,10,4,11.95,164.621461,72.834648,0.223694,2.546745488,0,0,-9.171454,176.2,1.7,1.4,0,0,1024,1024,1684,1243,178,0,99,3.907,3.903,3.89,0,0,0,13.184,84.92,164.621461,72.834648,6,P-GPS,,1.64042
9500,29-08-17 5:05,51.112176,9.01736284,74.475068,,,166.261881,0,0.223694,2.532687089,10,4,11.95,166.261881,74.475068,0.223694,2.546745488,-0.223694,0,-9.171454,177.5,2.9,2.1,0,0,1024,1024,1684,1263,178.9,0,99,3.907,3.903,3.89,0,0,0,13.184,84.92,166.261881,74.475068,6,P-GPS,,1.312336
9600,29-08-17 5:05,51.11217593,9.01736282,75.787404,,,167.574217,0,0.223694,2.51617134,10,4,11.95,167.574217,75.787404,0.223694,2.546745488,-0.223694,0,-9.171454,177.8,3.4,2.9,0,0,1024,1024,1684,1267,179.9,0,99,3.907,3.903,3.89,0,0,0,13.184,84.92,167.574217,75.787404,6,P-GPS,,1.64042
9700,29-08-17 5:05,51.11217581,9.01736273,77.427824,,,169.214637,0,0.223694,2.501945618,10,4,11.95,169.214637,77.427824,0.223694,2.546745488,-0.223694,0,-9.171454,179.1,3.8,2.6,0,0,1024,1024,1684,1269,181.1,0,99,3.907,3.903,3.89,0,0,0,13.184,84.92,169.214637,77.427824,6,P-GPS,,1.64042
9800,29-08-17 5:05,51.11217572,9.01736264,79.068244,,,170.855057,0,0.223694,2.495249424,10,4,11.95,170.855057,79.068244,0.223694,2.546745488,-0.223694,0,-9.171454,179.6,3.9,2.1,0,0,1024,1024,1684,1269,182.2,0,99,3.907,3.903,3.89,0,0,0,13.184,84.92,170.855057,79.068244,6,P-GPS,,1.312336
9900,29-08-17 5:05,51.11217559,9.01736253,80.38058,,,172.167393,0,0.223694,2.485219896,10,4,11.95,172.167393,80.38058,0.223694,2.546745488,-0.223694,0,-9.171454,181.1,3.9,2,0,0,1024,1024,1684,1276,183.4,0,99,3.907,3.903,3.89,0,0,0,13.184,84.92,172.167393,80.38058,6,P-GPS,,1.64042
10000,29-08-17 5:05,51.11217548,9.01736242,82.021,,,173.807813,0,0.223694,2.481164778,10,4,11.95,173.807813,82.021,0.223694,2.546745488,-0.223694,0,-9.395148,182.1,4.8,2.1,0,0,1024,1024,1684,1284,184.6,0,99,3.907,3.903,3.89,0,0,0,13.184,84.92,173.807813,82.021,6,P-GPS,,1.64042
10100,29-08-17 5:05,51.1121754,9.01736228,83.66142,,,175.448233,0,0.223694,2.495406904,10,4,11.95,175.448233,83.66142,0.223694,2.546745488,-0.223694,0,-9.171454,183.6,4.1,2.5,0,0,1024,1024,1684,1285,185.9,0,99,3.907,3.903,3.89,0,0,0,13.184,84.92,175.448233,83.66142,6,P-GPS,,1.64042
10200,29-08-17 5:05,51.11217534,9.01736212,85.30184,,,177.088653,0,0.223694,2.516610973,10,4,11.95,177.088653,85.30184,0.223694,2.546745488,-0.223694,0,-9.395148,184.6,4.1,1.4,0,0,1024,1024,1684,1289,187.2,0,99,3.907,3.903,3.89,0,0,0,13.184,84.92,177.088653,85.30184,6,P-GPS,,1.64042
10300,29-08-17 5:05,51.11217528,9.017362,86.94226,,,178.729073,0,0.223694,2.535810449,10,4,12.122,178.729073,86.94226,0.223694,2.546745488,-0.223694,0,-9.395148,186,4.6,1.4,0,0,1024,1024,1684,1323,188.5,0,99,3.919,3.919,3.909,0,0,0,12.114,85.1,178.729073,86.94226,6,P-GPS,,1.64042
10400,29-08-17 5:05,51.11217523,9.01736189,88.58268,,,180.369493,0,0.223694,2.551958743,10,4,12.122,180.369493,88.58268,0.223694,2.551958743,-0.223694,0,-9.395148,187.3,5.4,1.7,0,0,1024,1024,1684,1336,190.1,0,99,3.919,3.919,3.909,0,0,0,12.114,85.1,180.369493,88.58268,6,P-GPS,,1.64042
10500,29-08-17 5:05,51.1121752,9.01736175,90.2231,,,182.009913,0,0,2.580564387,10,4,12.122,182.009913,90.2231,0.223694,2.580564387,0,0,-9.395148,188.4,5.2,1.8,0,0,1024,1024,1684,1336,192,0,99,3.919,3.919,3.909,0,0,0,12.114,85.1,182.009913,90.2231,6,P-GPS,,1.312336
10600,29-08-17 5:05,51.11217519,9.01736163,91.535436,,,183.322249,0,0,2.607529611,10,4,12.122,183.322249,91.535436,0.223694,2.607529611,0,0,-9.395148,189.9,4.6,2.5,0,0,1024,1024,1684,1341,193.9,0,99,3.919,3.919,3.909,0,0,0,12.114,85.1,183.322249,91.535436,6,P-GPS,,1.64042
10700,29-08-17 5:05,51.11217515,9.01736149,93.175856,,,184.962669,0,0,2.635872788,10,4,12.122,184.962669,93.175856,0.223694,2.635872788,0,0,-9.171454,191.9,4.2,2.8,0,0,1024,1024,1684,1348,195.9,0,99,3.919,3.919,3.909,0,0,0,12.114,85.1,184.962669,93.175856,6,P-GPS,,1.64042
10800,29-08-17 5:05,51.11217512,9.01736137,94.816276,,,186.603089,0,0,2.66353355,10,4,12.122,186.603089,94.816276,0.223694,2.66353355,0,0,-9.171454,193.9,4.2,3.6,0,0,1024,1024,1684,1354,197.9,0,99,3.919,3.919,3.909,0,0,0,12.114,85.1,186.603089,94.816276,6,P-GPS,,1.64042
10900,29-08-17 5:05,51.11217509,9.01736122,96.456696,,,188.243509,0,0,2.694717934,10,4,12.122,188.243509,96.456696,0.223694,2.694717934,0,0,-9.171454,195.7,3.9,3.6,0,0,1024,1024,1684,1358,200,0,99,3.919,3.919,3.909,0,0,0,12.114,85.1,188.243509,96.456696,6,P-GPS,,1.64042
11000,29-08-17 5:05,51.11217506,9.01736108,98.097116,,,189.883929,0,0,2.730141163,10,4,12.122,189.883929,98.097116,0.223694,2.730141163,0,0,-9.171454,197.1,4.2,2.8,0,0,1024,1024,1684,1373,202.2,0,99,3.919,3.919,3.909,0,0,0,12.114,85.1,189.883929,98.097116,6,P-GPS,,1.64042
11100,29-08-17 5:05,51.11217502,9.01736087,99.737536,,,191.524349,0,0,2.778756651,10,4,12.122,191.524349,99.737536,0.223694,2.778756651,0,0,-9.171454,199.4,3.9,3.3,0,0,1024,1024,1684,1393,204.5,0,99,3.919,3.919,3.909,0,0,0,12.114,85.1,191.524349,99.737536,6,P-GPS,,1.64042
11200,29-08-17 5:05,51.112175,9.01736069,101.377956,,,193.164769,0,0,2.826686442,10,4,12.122,193.164769,101.377956,0.223694,2.826686442,0,0,-9.395148,201.9,4.2,3.4,0,0,1024,1024,1649,1536,207.1,0,99,3.919,3.919,3.909,0,0,0,12.114,85.1,193.164769,101.377956,6,P-GPS,,1.64042
11300,29-08-17 5:05,51.11217498,9.01736046,103.018376,,,194.805189,0,0,2.89092857,10,4,11.971,194.805189,103.018376,0.223694,2.89092857,0,0,-9.395148,204.4,4.6,3.7,0,0,1024,1024,1024,1024,209.5,0,99,3.933,3.93,3.922,0,0,0,10.918,85.1,194.805189,103.018376,6,P-GPS,,1.64042
11400,29-08-17 5:05,51.11217498,9.01736024,104.658796,,,196.445609,0,0,2.953851801,10,4,11.971,196.445609,104.658796,0.223694,2.953851801,0,0,-9.171454,207.2,4.8,3.7,0,0,1024,1024,1024,1024,209.5,0,99,3.933,3.93,3.922,0,0,0,10.918,85.1,196.445609,104.658796,6,P-GPS,,1.64042
11500,29-08-17 5:05,51.11217495,9.01736006,106.299216,,,198.086029,0,0,3.002401671,10,4,11.971,198.086029,106.299216,0.223694,3.002401671,0,0,-8.276678,208.6,5.1,4.1,0,0,1026,1024,1024,1024,209.5,0,99,3.933,3.93,3.922,0,0,0,10.918,85.1,198.086029,106.299216,6,P-GPS,,1.312336
11600,29-08-17 5:05,51.11217494,9.01735988,107.611552,,,199.398365,0,0,3.051820964,10,4,11.971,199.398365,107.611552,0.223694,3.051820964,0,0,-7.605596,209.4,4.7,4.7,0,0,1027,1024,1024,1024,209.5,0,99,3.933,3.93,3.922,0,0,0,10.918,85.1,199.398365,107.611552,6,P-GPS,,1.312336
11700,29-08-17 5:05,51.11217495,9.01735971,108.923888,,,200.710701,0,0,3.104708105,10,4,11.971,200.710701,108.923888,0.223694,3.104708105,0,0,-6.71082,209.7,4.6,5.1,0,0,1027,1024,1024,1024,209.5,0,99,3.933,3.93,3.922,0,0,0,10.918,85.1,200.710701,108.923888,6,P-GPS,,0.984252
11800,29-08-17 5:05,51.11217496,9.01735954,109.90814,,,201.694953,0,0,3.158720574,10,4,11.971,201.694953,109.90814,0.223694,3.158720574,0,0,-5.59235,209.8,4.4,5,0,0,1033,1024,1024,1024,209.5,0,99,3.933,3.93,3.922,0,0,0,10.918,85.1,201.694953,109.90814,6,P-GPS,,0.984252
11900,29-08-17 5:05,51.11217496,9.01735937,110.892392,,,202.679205,0,0,3.210518475,10,4,11.971,202.679205,110.892392,0.223694,3.210518475,0,0,-4.47388,209.9,4.5,5,0,0,1034,1024,1024,1024,209.5,0,99,3.933,3.93,3.922,0,0,0,10.918,85.1,202.679205,110.892392,6,P-GPS,,0.656168
12000,29-08-17 5:05,51.11217497,9.0173592,111.54856,,,203.335373,0,0,3.263599186,10,4,11.971,203.335373,111.54856,0.223694,3.263599186,0,0,-3.579104,209.9,4.6,5.2,0,0,1027,1024,1024,1024,209.5,0,99,3.933,3.93,3.922,0,0,0,10.918,85.1,203.335373,111.54856,6,P-GPS,,0.656168
12100,29-08-17 5:05,51.11217497,9.01735909,112.204728,,,203.991541,0,0,3.298851812,10,4,11.971,203.991541,112.204728,0.223694,3.298851812,0,0,-2.684328,209.8,4.7,5.4,0,0,1024,1024,1024,1130,209.5,0,99,3.933,3.93,3.922,0,0,0,10.918,85.1,203.991541,112.204728,6,P-GPS,,0.656168
12200,29-08-17 5:05,51.11217498,9.01735896,112.860896,,,204.647709,0,0,3.34071533,10,4,11.971,204.647709,112.860896,0.223694,3.34071533,0,0,-1.789552,209.8,5,5.6,0,0,1024,1024,1024,1323,209.6,0,99,3.933,3.93,3.922,0,0,0,10.918,85.1,204.647709,112.860896,6,P-GPS,,0.328084
12300,29-08-17 5:05,51.11217498,9.01735879,113.18898,,,204.975793,0,0,3.393930555,10,4,12.187,204.975793,113.18898,0.223694,3.393930555,0,0,-1.11847,209.9,5.3,5.5,0,0,1024,1024,1058,1444,211,0,98,4.048,4.047,4.044,0,0,0,6.446,85.28,204.975793,113.18898,6,P-GPS,,0.328084
12400,29-08-17 5:05,51.11217501,9.01735861,113.517064,,,205.303877,0,0,3.452854441,10,4,12.187,205.303877,113.517064,0.223694,3.452854441,0,0,-0.671082,210.3,5.3,5.2,0,0,1024,1024,1091,1492,213.6,0,98,4.048,4.047,4.044,0,0,0,6.446,85.28,205.303877,113.517064,6,P-GPS,,0.328084
12500,29-08-17 5:05,51.1121751,9.01735849,113.845148,,,205.631961,0,0,3.506332133,10,4,12.187,205.631961,113.845148,0.223694,3.506332133,0,0,-0.447388,211.7,4.9,5.4,0,0,1024,1024,1109,1497,217.6,0,98,4.048,4.047,4.044,0,0,0,6.446,85.28,205.631961,113.845148,6,P-GPS,,0
12600,29-08-17 5:05,51.11217521,9.01735835,113.845148,,,205.631961,0,0,3.568963369,10,4,12.187,205.631961,113.845148,0.223694,3.568963369,0,0,-0.223694,214.1,4.6,5.5,0,0,1024,1024,1124,1520,222,0,98,4.048,4.047,4.044,0,0,0,6.446,85.28,205.631961,113.845148,6,P-GPS,,0.328084
12700,29-08-17 5:05,51.11217536,9.01735829,114.173232,,,205.960045,0,0,3.612631349,10,4,12.187,205.960045,114.173232,0.223694,3.612631349,0,0,-0.223694,218,4.2,5.7,0,0,1024,1024,1130,1520,226.8,0,98,4.048,4.047,4.044,0,0,0,6.446,85.28,205.960045,114.173232,6,P-GPS,,0.328084
12800,29-08-17 5:05,51.11217552,9.0173582,114.501316,,,206.288129,0,0,3.671784894,10,4,12.187,206.288129,114.501316,0.223694,3.671784894,0,0,-0.223694,222.4,3.6,6.2,0,0,1024,1024,1146,1531,231.8,0,98,4.048,4.047,4.044,0,0,0,6.446,85.28,206.288129,114.501316,6,P-GPS,,0.328084
12900,29-08-17 5:05,51.11217572,9.01735804,114.8294,,,206.616213,0,0,3.758858388,10,4,12.187,206.616213,114.8294,0.223694,3.758858388,0,0,-0.223694,227.2,3.3,6.4,0,0,1024,1024,1160,1555,237,0,98,4.048,4.047,4.044,0,0,0,6.446,85.28,206.616213,114.8294,6,P-GPS,,0
13000,29-08-17 5:05,51.11217595,9.01735787,114.8294,,,206.616213,0,0,3.852690412,10,4,12.187,206.616213,114.8294,0.223694,3.852690412,0,0,0,232.4,2.9,6.3,0,0,1024,1024,1172,1553,242.6,0,98,4.048,4.047,4.044,0,0,0,6.446,85.28,206.616213,114.8294,6,P-GPS,,0.328084
13100,29-08-17 5:05,51.11217617,9.01735776,115.157484,,,206.944297,0,0,3.928149732,10,4,12.187,206.944297,115.157484,0.223694,3.928149732,0,0,-0.223694,237.5,2,6.2,0,0,1057,1024,1024,1024,248.4,0,98,4.048,4.047,4.044,0,0,0,6.446,85.28,206.944297,115.157484,6,P-GPS,,0.328084
13200,29-08-17 5:05,51.11217641,9.01735763,115.485568,,,207.272381,0,0,4.014074932,10,4,12.187,207.272381,115.485568,0.223694,4.014074932,0,0,-0.223694,242.6,1.1,5.9,0,0,1425,1024,1024,1024,250.8,0,98,4.048,4.047,4.044,0,0,0,6.446,85.28,207.272381,115.485568,6,P-GPS,,0.328084
13300,29-08-17 5:05,51.11217665,9.01735764,115.813652,,,207.600465,0,0,4.05738202,10,4,12.079,207.600465,115.813652,0.223694,4.05738202,0,0,-0.671082,247.4,-1.4,4.3,0,0,1684,911,1024,1024,250.8,0,98,4.048,4.047,4.044,0,0,0,6.446,85.28,207.600465,115.813652,6,P-GPS,,0
13400,29-08-17 5:05,51.11217687,9.01735759,115.813652,,,207.600465,0,0,4.116601182,10,4,12.079,207.600465,115.813652,0.223694,4.116601182,0,0,-0.223694,249.2,-15.4,4,0,0,1684,834,1024,1024,250.8,0,98,4.048,4.047,4.044,0,0,0,6.446,85.28,207.600465,115.813652,6,P-GPS,,0.328084
13500,29-08-17 5:05,51.11217695,9.01735746,116.141736,,,207.928549,0,0.7158208,4.171259976,10,4,12.079,207.928549,116.141736,0.7158208,4.171259976,-0.223694,-0.671082,-0.223694,249.8,-19.7,2.3,0,0,1684,874,1024,1024,250.8,0,98,4.048,4.047,4.044,0,0,0,6.446,85.28,207.928549,116.141736,6,P-GPS,,0.328084
13600,29-08-17 5:05,51.11217691,9.01735702,116.46982,,,208.256633,0,1.2079476,4.294389901,10,4,12.079,208.256633,116.46982,1.2079476,4.294389901,-0.447388,-1.11847,0,250.2,-21.9,1.6,0,0,1684,929,1024,1024,250.8,0,98,4.048,4.047,4.044,0,0,0,6.446,85.28,208.256633,116.46982,6,P-GPS,,0.328084
13700,29-08-17 5:05,51.11217666,9.0173563,116.797904,,,208.584717,0,1.9908766,4.462008017,10,4,12.079,208.584717,116.797904,1.9908766,4.462008017,-0.894776,-1.789552,-0.223694,250.5,-22.3,2,0,0,1684,1024,1024,1024,250.8,0,98,4.048,4.047,4.044,0,0,0,6.446,85.28,208.584717,116.797904,6,P-GPS,,0
13800,29-08-17 5:05,51.11217627,9.01735526,116.797904,,,208.584717,0,2.9974996,4.720275742,10,4,12.079,208.584717,116.797904,2.9974996,4.720275742,-1.342164,-2.684328,0,250.4,-22.7,2.9,0,0,1684,1024,1024,1024,250.8,0,98,4.048,4.047,4.044,0,0,0,6.446,85.28,208.584717,116.797904,6,P-GPS,,0.328084
13900,29-08-17 5:05,51.11217568,9.01735379,117.125988,,,208.912801,0,3.7133204,5.106594652,10,4,12.079,208.912801,117.125988,3.7133204,5.106594652,-1.565858,-3.35541,0.223694,250.2,-22.6,3.3,0,0,1684,1024,1024,1024,250.8,0,98,4.048,4.047,4.044,0,0,0,6.446,85.28,208.912801,117.125988,6,P-GPS,,0
14000,29-08-17 5:05,51.11217499,9.01735205,117.125988,,,208.912801,0,4.4962494,5.603543486,10,4,12.079,208.912801,117.125988,4.4962494,5.603543486,-2.013246,-4.026492,0,250.2,-21.3,3.5,0,0,1684,1024,1024,1024,250.8,0,98,4.048,4.047,4.044,0,0,0,6.446,85.28,208.912801,117.125988,6,P-GPS,,0.328084
14100,29-08-17 5:05,51.11217417,9.01734991,117.454072,,,209.240885,0,5.2120702,6.260400463,10,4,12.079,209.240885,117.454072,5.2120702,6.260400463,-2.23694,-4.697574,0,250.4,-19.5,3.6,0,0,1684,1024,1024,1024,250.8,0,98,4.048,4.047,4.044,0,0,0,6.446,85.28,209.240885,117.454072,6,P-GPS,,0
14200,29-08-17 5:05,51.11217327,9.01734758,117.454072,,,209.240885,0,5.704197,7.015551406,10,4,12.079,209.240885,117.454072,5.704197,7.015551406,-2.460634,-5.144962,0,250.8,-18.1,3.8,0,0,1684,1024,1024,1024,250.8,0,98,4.048,4.047,4.044,0,0,0,6.446,85.28,209.240885,117.454072,6,P-GPS,,0.328084
14300,29-08-17 5:05,51.11217239,9.01734489,117.782156,,,209.568969,0,5.704197,7.923786343,10,4,11.885,209.568969,117.782156,5.704197,7.923786343,-2.460634,-5.816044,0.223694,251,-16.7,3.7,0,0,1684,1024,1024,1024,250.8,0,98,3.99,3.978,4.044,0,0,0,8.46,85.46,209.568969,117.782156,6,P-GPS,,0
14400,29-08-17 5:05,51.11217142,9.01734208,117.782156,,,209.568969,0,6.822667,8.895932043,10,4,11.885,209.568969,117.782156,6.822667,8.895932043,-2.684328,-6.263432,0.223694,250.8,-15.5,3.6,0,0,1684,1024,1024,1024,250.8,0,98,3.99,3.978,4.044,0,0,0,8.46,85.46,209.568969,117.782156,6,P-GPS,,0
14500,29-08-17 5:05,51.11217053,9.01733908,117.782156,,,209.568969,0,7.0239916,9.950853337,10,4,11.885,209.568969,117.782156,7.0239916,9.950853337,-2.684328,-6.487126,0.671082,250.8,-15.1,3.4,0,0,1684,1024,1024,1024,250.8,0,98,3.99,3.978,4.044,0,0,0,8.46,85.46,209.568969,117.782156,6,P-GPS,,-0.328084
14600,29-08-17 5:05,51.11216953,9.01733597,117.454072,,,209.240885,0,7.5161184,11.05872739,10,4,11.885,209.568969,117.782156,7.5161184,11.05872739,-2.908022,-6.934514,0.894776,251,-14.9,3.1,0,0,1684,1024,1024,1024,250.8,0,98,3.99,3.978,4.044,0,0,0,8.46,85.46,209.240885,117.454072,6,P-GPS,,0
14700,29-08-17 5:05,51.11216862,9.01733259,117.454072,,,209.240885,0,7.941137,12.26886522,10,4,11.885,209.568969,117.782156,7.941137,12.26886522,-2.908022,-7.381902,0.671082,250.9,-14.5,2.8,0,0,1684,1024,1024,1024,250.8,0,98,3.99,3.978,4.044,0,0,0,8.46,85.46,209.240885,117.454072,6,P-GPS,,0
14800,29-08-17 5:05,51.11216758,9.01732912,117.454072,,,209.240885,0,8.4332638,13.52342563,10,4,11.885,209.568969,117.782156,8.4332638,13.52342563,-3.131716,-7.82929,0.894776,250.7,-14.6,2.8,0,0,1684,1024,1024,1024,250.8,0,98,3.99,3.978,4.044,0,0,0,8.46,85.46,209.240885,117.454072,6,P-GPS,,0
14900,29-08-17 5:05,51.11216658,9.0173254,117.454072,,,209.240885,0,8.6345884,14.86604378,10,4,11.885,209.568969,117.782156,8.6345884,14.86604378,-3.131716,-8.052984,0.894776,250.6,-14.7,2.8,0,0,1684,1024,1024,1024,250.8,0,98,3.99,3.978,4.044,0,0,0,8.46,85.46,209.240885,117.454072,6,P-GPS,,-0.328084
15000,29-08-17 5:05,51.11216545,9.0173216,117.125988,,,208.912801,0,9.1490846,16.25045984,10,4,11.885,209.568969,117.782156,9.1490846,16.25045984,-3.35541,-8.500372,0.894776,251,-14.7,2.8,0,0,1684,1024,1024,848,250.8,0,98,3.99,3.978,4.044,0,0,0,8.46,85.46,208.912801,117.125988,6,P-GPS,,0
15100,29-08-17 5:05,51.11216428,9.01731763,117.125988,,,208.912801,0,9.4398868,17.69639164,10,4,11.885,209.568969,117.782156,9.4398868,17.69639164,-3.579104,-8.724066,1.11847,250.6,-14.8,3.1,0,0,1684,1024,1024,780,250.4,0,98,3.99,3.978,4.044,0,0,0,8.46,85.46,208.912801,117.125988,6,P-GPS,,-0.328084
15200,29-08-17 5:05,51.11216299,9.01731356,116.797904,,,208.584717,0,9.842536,19.18763185,10,4,11.885,209.568969,117.782156,9.842536,19.18763185,-3.579104,-9.171454,0.671082,250.6,-14.8,2.8,0,0,1684,1024,1024,726,249.3,0,98,3.99,3.978,4.044,0,0,0,8.46,85.46,208.584717,116.797904,6,P-GPS,,0
15300,29-08-17 5:05,51.11216164,9.01730919,116.797904,,,208.584717,0,10.3346628,20.79222507,10,4,11.928,209.568969,117.782156,10.3346628,20.79222507,-3.802798,-9.618842,0.671082,250.2,-14.9,3,0,0,1684,1024,1024,716,247.8,0,98,3.985,3.979,3.976,0,0,0,7.89,85.64,208.584717,116.797904,6,P-GPS,,0
15400,29-08-17 5:05,51.11216019,9.01730475,116.797904,,,208.584717,0,10.625465,22.42959389,10,4,11.928,209.568969,117.782156,10.625465,22.42959389,-4.026492,-9.842536,0.894776,249.2,-15,3.4,0,0,1684,1024,1024,828,246,0,98,3.985,3.979,3.976,0,0,0,7.89,85.64,208.584717,116.797904,6,P-GPS,,-0.328084
15500,29-08-17 5:05,51.11215866,9.0173,116.46982,,,208.256633,0,11.0504836,24.18559789,10,4,11.928,209.568969,117.782156,11.0504836,24.18559789,-4.026492,-10.289924,0.894776,247.6,-14.9,3.7,0,0,1684,1024,1024,1024,245,0,98,3.985,3.979,3.976,0,0,0,7.89,85.64,208.256633,116.46982,6,P-GPS,,0
15600,29-08-17 5:05,51.11215705,9.01729521,116.46982,,,208.256633,0,11.5426104,25.96250083,10,4,11.928,209.568969,117.782156,11.5426104,25.96250083,-4.250186,-10.737312,1.11847,246.1,-14.9,3.5,0,0,1684,1024,1024,1024,244.9,0,98,3.985,3.979,3.976,0,0,0,7.89,85.64,208.256633,116.46982,6,P-GPS,,-0.328084
15700,29-08-17 5:05,51.11215534,9.01729,116.141736,,,207.928549,0,12.0571066,27.89186441,10,4,11.928,209.568969,117.782156,12.0571066,27.89186441,-4.47388,-11.1847,0.671082,245.4,-14.8,3.5,0,0,1684,1024,1024,1024,245,0,98,3.985,3.979,3.976,0,0,0,7.89,85.64,207.928549,116.141736,6,P-GPS,,0
15800,29-08-17 5:05,51.11215357,9.01728481,116.141736,,,207.928549,0,12.2584312,29.82552589,10,4,11.928,209.568969,117.782156,12.2584312,29.82552589,-4.47388,-11.408394,0.671082,245,-14.8,3.4,0,0,1684,1024,1024,1024,244.9,0,98,3.985,3.979,3.976,0,0,0,7.89,85.64,207.928549,116.141736,6,P-GPS,,0
15900,29-08-17 5:05,51.11215162,9.01727908,116.141736,,,207.928549,0,12.750558,31.95925299,10,4,11.928,209.568969,117.782156,12.750558,31.95925299,-4.697574,-11.855782,0.223694,244.8,-15.3,3.4,0,0,1684,1024,1024,1024,244.9,0,98,3.985,3.979,3.976,0,0,0,7.89,85.64,207.928549,116.141736,6,P-GPS,,0
16000,29-08-17 5:05,51.11214963,9.01727343,116.141736,,,207.928549,0,13.2426848,34.07217957,10,4,11.928,209.568969,117.782156,13.2426848,34.07217957,-4.921268,-12.30317,0.223694,244.9,-15.4,3.3,0,0,1684,1024,1024,1024,244.9,0,98,3.985,3.979,3.976,0,0,0,7.89,85.64,207.928549,116.141736,6,P-GPS,,-0.328084
16100,29-08-17 5:05,51.11214739,9.01726726,115.813652,,,207.600465,0,13.757181,36.38582794,10,4,11.928,209.568969,117.782156,13.757181,36.38582794,-5.144962,-12.750558,0.447388,244.6,-15.3,3.5,0,0,1684,1024,1024,1024,244.9,0,98,3.985,3.979,3.976,0,0,0,7.89,85.64,207.600465,115.813652,6,P-GPS,,0
16200,29-08-17 5:05,51.11214514,9.01726122,115.813652,,,207.600465,0,14.0479832,38.65912197,10,4,11.928,209.568969,117.782156,14.0479832,38.65912197,-5.368656,-12.974252,0,244.6,-14.9,3.5,0,0,1684,1024,1024,1024,244.9,0,98,3.985,3.979,3.976,0,0,0,7.89,85.64,207.600465,115.813652,6,P-GPS,,0
16300,29-08-17 5:05,51.11214267,9.01725468,115.813652,,,207.600465,0,14.54011,41.12467323,10,4,12.058,209.568969,117.782156,14.54011,41.12467323,-5.59235,-13.42164,0.447388,244.6,-15,3.5,0,0,1684,1024,1024,1024,244.9,0,98,3.985,3.979,3.976,0,0,0,8.872,85.64,207.600465,115.813652,6,P-GPS,,0
16400,29-08-17 5:05,51.11214022,9.0172483,115.813652,,,207.600465,0,14.54011,43.53969956,10,4,12.058,209.568969,117.782156,14.54011,43.53969956,-5.816044,-13.869028,0,244.8,-14.9,3.5,0,0,1684,1024,1024,1024,244.9,0,98,3.985,3.979,3.976,0,0,0,8.872,85.64,207.600465,115.813652,6,P-GPS,,0
16500,29-08-17 5:05,51.11213752,9.01724133,115.813652,,,207.600465,0,15.323039,46.17880725,10,4,12.058,209.568969,117.782156,15.323039,46.17880725,-6.039738,-14.092722,0.223694,244.8,-15,3.7,0,0,1684,1024,1024,978,245,0,98,3.985,3.979,3.976,0,0,0,8.872,85.64,207.600465,115.813652,6,P-GPS,,-0.328084
16600,29-08-17 5:05,51.11213487,9.01723456,115.485568,,,207.272381,0,15.8375352,48.74803306,10,4,12.058,209.568969,117.782156,15.8375352,48.74803306,-6.263432,-14.54011,0.447388,244.8,-14.6,3.7,0,0,1684,1024,1024,840,244.9,0,98,3.985,3.979,3.976,0,0,0,8.872,85.64,207.272381,115.485568,6,P-GPS,,0
16700,29-08-17 5:05,51.11213197,9.0172272,115.485568,,,207.272381,0,16.2401844,51.54166832,10,4,12.058,209.568969,117.782156,16.2401844,51.54166832,-6.263432,-14.987498,0.447388,244.8,-14.3,3.7,0,0,1684,1024,1024,838,244.5,0,98,3.985,3.979,3.976,0,0,0,8.872,85.64,207.272381,115.485568,6,P-GPS,,0
16800,29-08-17 5:05,51.11212914,9.01722007,115.485568,,,207.272381,0,16.5309866,54.25590725,10,4,12.058,209.568969,117.782156,16.5309866,54.25590725,-6.487126,-15.211192,0,244.6,-14.5,3.7,0,0,1684,1024,1024,837,243.8,0,98,3.985,3.979,3.976,0,0,0,8.872,85.64,207.272381,115.485568,6,P-GPS,,0
16900,29-08-17 5:05,51.11212609,9.01721238,115.485568,,,207.272381,0,17.0454828,57.18208844,10,4,12.058,209.568969,117.782156,17.0454828,57.18208844,-6.71082,-15.65858,0,244.2,-14.9,3.6,0,0,1684,1024,1024,790,243.1,0,98,3.985,3.979,3.976,0,0,0,8.872,85.64,207.272381,115.485568,6,P-GPS,,0
17000,29-08-17 5:05,51.11212311,9.01720493,115.485568,,,207.272381,0,17.336285,60.02231163,10,4,12.058,209.568969,117.782156,17.336285,60.02231163,-6.934514,-15.882274,0,243.6,-15.1,3.7,0,0,1684,1024,1024,741,242.2,0,98,3.985,3.979,3.976,0,0,0,8.872,85.64,207.272381,115.485568,6,P-GPS,,0
17100,29-08-17 5:05,51.11211988,9.01719679,115.485568,,,207.272381,0,17.7389342,63.12434585,10,4,12.058,209.568969,117.782156,17.7389342,63.12434585,-6.934514,-16.329662,0,242.9,-15,4,0,0,1684,1024,1024,727,240.8,0,98,3.985,3.979,3.976,0,0,0,8.872,85.64,207.272381,115.485568,6,P-GPS,,0
17200,29-08-17 5:05,51.11211671,9.01718894,115.485568,,,207.272381,0,18.231061,66.1233617,10,4,12.058,209.568969,117.782156,18.231061,66.1233617,-7.158208,-16.77705,0,241.9,-15,3.8,0,0,1684,1024,1024,720,239.1,0,98,3.985,3.979,3.976,0,0,0,8.872,85.64,207.272381,115.485568,6,P-GPS,,0
17300,29-08-17 5:05,51.11211326,9.01718048,115.485568,,,207.272381,0,18.5442326,69.36056652,10,4,11.82,209.568969,117.782156,18.5442326,69.36056652,-7.381902,-17.000744,0,240.3,-14.8,4,0,0,1684,1024,1024,714,237.2,0,98,3.97,3.963,3.956,0,0,0,8.872,85.64,207.272381,115.485568,6,P-GPS,,-0.328084
17400,29-08-17 5:05,51.1121099,9.01717232,115.157484,,,206.944297,0,19.0363594,72.48523854,10,4,11.82,209.568969,117.782156,19.0363594,72.48523854,-7.605596,-17.448132,0,238.8,-14.5,3.7,0,0,1684,1024,1024,718,235.3,0,98,3.97,3.963,3.956,0,0,0,8.872,85.64,206.944297,115.157484,6,P-GPS,,0
17500,29-08-17 5:05,51.11210622,9.01716365,115.157484,,,206.944297,0,19.3271616,75.82382132,10,4,11.82,209.568969,117.782156,19.3271616,75.82382132,-7.82929,-17.671826,0,237,-14.1,3.3,0,0,1684,1024,1024,718,233.5,0,98,3.97,3.963,3.956,0,0,0,8.872,85.64,206.944297,115.157484,6,P-GPS,,0
17600,29-08-17 5:05,51.11210263,9.01715529,115.157484,,,206.944297,0,19.6179638,79.0456062,10,4,11.82,209.568969,117.782156,19.6179638,79.0456062,-8.052984,-17.89552,0.223694,235.5,-13.7,3.1,0,0,1684,1024,1024,726,231.6,0,98,3.97,3.963,3.956,0,0,0,8.872,85.64,206.944297,115.157484,6,P-GPS,,0.328084
17700,29-08-17 5:05,51.1120987,9.01714625,115.485568,,,207.272381,0,19.9311354,82.53674805,10,4,11.82,209.568969,117.782156,19.9311354,82.53674805,-8.276678,-18.119214,-0.223694,233.6,-13.4,3.2,0,0,1684,1024,1024,747,229.9,0,98,3.97,3.963,3.956,0,0,0,8.872,85.64,207.272381,115.485568,6,P-GPS,,-0.328084
17800,29-08-17 5:05,51.11209487,9.01713758,115.157484,,,206.944297,0,20.3114152,85.89173503,10,4,11.82,209.568969,117.782156,20.3114152,85.89173503,-8.724066,-18.342908,0.223694,231.6,-12.8,3.1,0,0,1684,1024,1024,759,228.3,0,98,3.97,3.963,3.956,0,0,0,8.872,85.64,206.944297,115.157484,6,P-GPS,,0
17900,29-08-17 5:05,51.11209066,9.01712837,115.157484,,,206.944297,0,20.6022174,89.47966166,10,4,11.82,209.568969,117.782156,20.6022174,89.47966166,-8.94776,-18.566602,0,229.9,-12.2,2.4,0,0,1684,1024,1024,766,226.9,0,98,3.97,3.963,3.956,0,0,0,8.872,85.64,206.944297,115.157484,6,P-GPS,,0
18000,29-08-17 5:05,51.11208657,9.01711956,115.157484,,,206.944297,0,20.915389,92.91666964,10,4,11.82,209.568969,117.782156,20.915389,92.91666964,-9.171454,-18.790296,-0.223694,228.2,-11.9,1.9,0,0,1684,1024,1024,766,225.6,0,98,3.97,3.963,3.956,0,0,0,8.872,85.64,206.944297,115.157484,6,P-GPS,,0.328084
18100,29-08-17 5:05,51.11208211,9.01711021,115.485568,,,207.272381,0,21.0048666,96.5797275,10,4,11.82,209.568969,117.782156,21.0048666,96.5797275,-9.395148,-18.790296,-0.223694,227,-12,1.5,0,0,1684,1024,1024,764,224.3,0,98,3.97,3.963,3.956,0,0,0,8.872,85.64,207.272381,115.485568,6,P-GPS,,0
18200,29-08-17 5:05,51.11207778,9.01710131,115.485568,,,207.272381,0,21.4075158,100.081368,10,4,11.82,209.568969,117.782156,21.4075158,100.081368,-9.842536,-19.01399,0,225.7,-11.5,1.3,0,0,1684,1024,1024,762,223,0,98,3.97,3.963,3.956,0,0,0,8.872,85.64,207.272381,115.485568,6,P-GPS,,0
18300,29-08-17 5:05,51.11207301,9.01709181,115.485568,,,207.272381,0,21.4075158,103.8379298,10,4,11.95,209.568969,117.782156,21.4075158,103.8379298,-10.06623,-19.01399,0,224.3,-11.2,1.2,0,0,1684,1024,1024,760,221.6,0,98,3.958,3.952,3.946,0,0,0,9.366,85.82,207.272381,115.485568,6,P-GPS,,0
18400,29-08-17 5:05,51.11206839,9.01708279,115.485568,,,207.272381,0,21.810165,107.4192948,10,4,11.95,209.568969,117.782156,21.810165,107.4192948,-10.289924,-19.237684,-0.223694,223,-10.7,0.7,0,0,1684,1024,1024,760,220.3,0,98,3.958,3.952,3.946,0,0,0,9.366,85.82,207.272381,115.485568,6,P-GPS,,0
18500,29-08-17 5:05,51.11206335,9.0170732,115.485568,,,207.272381,0,22.033859,111.2470508,10,4,11.95,209.568969,117.782156,22.033859,111.2470508,-10.737312,-19.237684,0,221.4,-10.5,-0.1,0,0,1684,1024,1024,760,218.9,0,98,3.958,3.952,3.946,0,0,0,9.366,85.82,207.272381,115.485568,6,P-GPS,,-0.328084
18600,29-08-17 5:05,51.11205844,9.01706412,115.157484,,,206.944297,0,22.257553,114.8887832,10,4,11.95,209.568969,117.782156,22.257553,114.8887832,-11.1847,-19.237684,0.223694,220.2,-9.8,-0.4,0,0,1684,1024,1024,759,217.6,0,98,3.958,3.952,3.946,0,0,0,9.366,85.82,206.944297,115.157484,6,P-GPS,,0
18700,29-08-17 5:05,51.11205305,9.01705452,115.157484,,,206.944297,0,22.3694,118.7690327,10,4,11.95,209.568969,117.782156,22.3694,118.7690327,-11.408394,-19.237684,0,219.1,-9.7,-0.8,0,0,1684,1024,1024,760,216.2,0,98,3.958,3.952,3.946,0,0,0,9.366,85.82,206.944297,115.157484,6,P-GPS,,0
18800,29-08-17 5:05,51.11204783,9.01704545,115.157484,,,206.944297,0,22.593094,122.4544002,10,4,11.95,209.568969,117.782156,22.593094,122.4544002,-11.855782,-19.237684,0,217.8,-9.4,-0.8,0,0,1684,1024,1024,761,214.8,0,98,3.958,3.952,3.946,0,0,0,9.366,85.82,206.944297,115.157484,6,P-GPS,,0
18900,29-08-17 5:05,51.11204208,9.01703582,115.157484,,,206.944297,0,22.5259858,126.3963295,10,4,11.95,209.568969,117.782156,22.593094,126.3963295,-12.079476,-19.01399,0,216.1,-9.2,-1.3,0,0,1684,1024,1024,1024,213.5,0,98,3.958,3.952,3.946,0,0,0,9.366,85.82,206.944297,115.157484,6,P-GPS,,0
19000,29-08-17 5:05,51.11203653,9.01702677,115.157484,,,206.944297,0,22.7720492,130.1292693,10,4,11.95,209.568969,117.782156,22.7720492,130.1292693,-12.526864,-19.01399,0,214.8,-8.8,-1.9,0,0,1684,1024,1024,1024,213.3,0,98,3.958,3.952,3.946,0,0,0,9.366,85.82,206.944297,115.157484,6,P-GPS,,0
19100,29-08-17 5:05,51.11203045,9.01701723,115.157484,,,206.944297,0,22.704941,134.0974452,10,4,11.95,209.568969,117.782156,22.7720492,134.0974452,-12.750558,-18.790296,0,213.7,-8.5,-2.2,0,0,1684,1024,1024,1024,213.3,0,98,3.958,3.952,3.946,0,0,0,9.366,85.82,206.944297,115.157484,6,P-GPS,,0
19200,29-08-17 5:05,51.11202458,9.01700828,115.157484,,,206.944297,0,22.9510044,137.8484296,10,4,11.95,209.568969,117.782156,22.9510044,137.8484296,-13.197946,-18.790296,0,213.4,-8.3,-2.5,0,0,1684,1024,1024,1024,213.3,0,98,3.958,3.952,3.946,0,0,0,9.366,85.82,206.944297,115.157484,6,P-GPS,,0
19300,29-08-17 5:05,51.11201827,9.01699902,115.157484,,,206.944297,0,22.9062656,141.7627998,10,4,12.101,209.568969,117.782156,22.9510044,141.7627998,-13.42164,-18.566602,0,213.5,-7.9,-2.6,0,0,1684,1024,1024,1024,213.3,0,98,3.971,3.965,3.958,0,0,0,8.402,86,206.944297,115.157484,6,P-GPS,,0
19400,29-08-17 5:05,51.11201215,9.01699027,115.157484,,,206.944297,0,23.1746984,145.4931149,10,4,12.101,209.568969,117.782156,23.1746984,145.4931149,-13.869028,-18.566602,0,213.6,-7.8,-2.6,0,0,1684,1024,1024,1024,213.3,0,98,3.971,3.965,3.958,0,0,0,8.402,86,206.944297,115.157484,6,P-GPS,,0.328084
19500,29-08-17 5:05,51.11200544,9.01698106,115.485568,,,207.272381,0,23.1299596,149.4652279,10,4,12.101,209.568969,117.782156,23.1746984,149.4652279,-14.092722,-18.342908,0,213.5,-7.8,-2.6,0,0,1684,1024,1024,1024,213.3,0,98,3.971,3.965,3.958,0,0,0,8.402,86,207.272381,115.485568,6,P-GPS,,0
19600,29-08-17 5:05,51.11199898,9.01697238,115.485568,,,207.272381,0,23.3983924,153.2306479,10,4,12.101,209.568969,117.782156,23.3983924,153.2306479,-14.54011,-18.342908,0,213.6,-7.2,-2.6,0,0,1684,1024,1024,1024,213.3,0,98,3.971,3.965,3.958,0,0,0,8.402,86,207.272381,115.485568,6,P-GPS,,-0.328084
19700,29-08-17 5:05,51.11199194,9.01696322,115.157484,,,206.944297,0,23.376023,157.2457399,10,4,12.101,209.568969,117.782156,23.3983924,157.2457399,-14.763804,-18.119214,0.223694,213.5,-6.7,-2.4,0,0,1684,1024,1024,1024,213.3,0,98,3.971,3.965,3.958,0,0,0,8.402,86,206.944297,115.157484,6,P-GPS,,0
19800,29-08-17 5:05,51.11198517,9.01695463,115.157484,,,206.944297,0,23.5102394,161.042328,10,4,12.101,209.568969,117.782156,23.5102394,161.042328,-14.987498,-18.119214,0,213.7,-6.7,-2.5,0,0,1684,1024,1024,1024,213.3,0,98,3.971,3.965,3.958,0,0,0,8.402,86,206.944297,115.157484,6,P-GPS,,0
19900,29-08-17 5:05,51.11197783,9.01694562,115.157484,,,206.944297,0,23.6220864,165.0669344,10,4,12.101,209.568969,117.782156,23.6220864,165.0669344,-15.434886,-17.89552,0,213.9,-6.7,-2.7,0,0,1684,1024,1024,1024,213.3,0,98,3.971,3.965,3.958,0,0,0,8.402,86,206.944297,115.157484,6,P-GPS,,0
20000,29-08-17 5:05,51.11197079,9.01693716,115.157484,,,206.944297,0,23.7786722,168.8763177,10,4,12.101,209.568969,117.782156,23.7786722,168.8763177,-15.65858,-17.89552,0,213.6,-6.4,-2.9,0,0,1684,1024,1024,1024,213.3,0,98,3.971,3.965,3.958,0,0,0,8.402,86,206.944297,115.157484,6,P-GPS,,0.328084
20100,29-08-17 5:05,51.11196316,9.01692827,115.485568,,,207.272381,0,23.7563028,172.9232339,10,4,12.101,209.568969,117.782156,23.7786722,172.9232339,-15.882274,-17.671826,-0.223694,213.6,-6,-3.2,0,0,1684,1024,1024,1024,213.3,0,98,3.971,3.965,3.958,0,0,0,8.402,86,207.272381,115.485568,6,P-GPS,,-0.328084
20200,29-08-17 5:05,51.11195585,9.01691993,115.157484,,,206.944297,0,23.7563028,176.7496776,10,4,12.101,209.568969,117.782156,23.7786722,176.7496776,-16.329662,-17.671826,0.223694,213.8,-5.6,-3.2,0,0,1684,1024,1024,1024,213.3,0,98,3.971,3.965,3.958,0,0,0,8.402,86,206.944297,115.157484,6,P-GPS,,0
20300,29-08-17 5:05,51.11194796,9.01691125,115.157484,,,206.944297,0,24.047105,180.7870793,10,4,11.95,209.568969,117.782156,24.047105,180.7870793,-16.553356,-17.448132,-0.223694,213.8,-5.3,-3.2,0,0,1684,1024,1024,1024,213.3,0,98,3.971,3.965,3.958,0,0,0,8.402,86,206.944297,115.157484,6,P-GPS,,0
20400,29-08-17 5:05,51.11194041,9.01690311,115.157484,,,206.944297,0,24.047105,184.6049928,10,4,11.95,209.568969,117.782156,24.047105,184.6049928,-16.77705,-17.224438,0,213.7,-5.2,-3,0,0,1684,1024,1024,1024,213.3,0,98,3.971,3.965,3.958,0,0,0,8.402,86,206.944297,115.157484,6,P-GPS,,0
20500,29-08-17 5:05,51.11193225,9.01689467,115.157484,,,206.944297,0,24.047105,188.624678,10,4,11.95,209.568969,117.782156,24.047105,188.624678,-17.000744,-17.000744,0.223694,213.6,-5,-3,0,0,1684,1024,1024,1024,213.3,0,98,3.971,3.965,3.958,0,0,0,8.402,86,206.944297,115.157484,6,P-GPS,,-0.328084
20600,29-08-17 5:05,51.11192447,9.01688674,114.8294,,,206.616213,0,24.047105,192.4320928,10,4,11.95,209.568969,117.782156,24.047105,192.4320928,-17.224438,-16.77705,0.223694,213.7,-4.4,-2.9,0,0,1684,1024,1024,1024,213.3,0,98,3.971,3.965,3.958,0,0,0,8.402,86,206.616213,114.8294,6,P-GPS,,-0.328084
20700,29-08-17 5:05,51.11191593,9.01687836,114.501316,,,206.288129,0,24.047105,196.5141139,10,4,11.95,209.568969,117.782156,24.047105,196.5141139,-17.448132,-16.553356,0,213.7,-4.2,-2.6,0,0,1684,1024,1024,1024,213.3,0,98,3.971,3.965,3.958,0,0,0,8.402,86,206.288129,114.501316,6,P-GPS,,0.328084
20800,29-08-17 5:05,51.11190786,9.01687055,114.8294,,,206.616213,0,24.0694744,200.3487597,10,4,11.95,209.568969,117.782156,24.0694744,200.3487597,-17.671826,-16.329662,-0.223694,213.6,-4.5,-2.6,0,0,1684,1024,1024,1024,213.3,0,98,3.971,3.965,3.958,0,0,0,8.402,86,206.616213,114.8294,6,P-GPS,,0
20900,29-08-17 5:05,51.11189917,9.01686262,114.8294,,,206.616213,0,24.0694744,204.3372769,10,4,11.95,209.568969,117.782156,24.0694744,204.3372769,-17.89552,-16.105968,0,213.5,-4.5,-2.4,0,0,1684,1024,1024,1024,213.3,0,98,3.971,3.965,3.958,0,0,0,8.402,86,206.616213,114.8294,6,P-GPS,,-0.328084
21000,29-08-17 5:05,51.11189091,9.01685514,114.501316,,,206.288129,0,24.0918438,208.1197573,10,4,11.95,209.568969,117.782156,24.0918438,208.1197573,-18.119214,-15.882274,0,213.4,-4.3,-2.3,0,0,1684,1024,1024,1024,213.3,0,98,3.971,3.965,3.958,0,0,0,8.402,86,206.288129,114.501316,6,P-GPS,,0.328084
21100,29-08-17 5:05,51.11188224,9.01684774,114.8294,,,206.616213,0,24.1142132,211.9596525,10,4,11.95,209.568969,117.782156,24.1142132,211.9596525,-18.342908,-15.65858,-0.447388,213.4,-4.2,-2,0,0,1684,1024,1024,1024,213.3,0,98,3.971,3.965,3.958,0,0,0,8.402,86,206.616213,114.8294,6,P-GPS,,0
