time(millisecond),datetime(utc),latitude,longitude,height_above_takeoff(feet),height_above_ground_at_drone_location(feet),ground_elevation_at_drone_location(feet),altitude_above_seaLevel(feet),height_sonar(feet),speed(mph),distance(feet),satellites,gpslevel,voltage(v),max_altitude(feet),max_ascent(feet),max_speed(mph),max_distance(feet), xSpeed(mph), ySpeed(mph), zSpeed(mph), compass_heading(degrees), pitch(degrees), roll(degrees),isPhoto,isVideo,rc_elevator,rc_aileron,rc_throttle,rc_rudder,gimbal_heading(degrees),gimbal_pitch(degrees),battery_percent,voltageCell1,voltageCell2,voltageCell3,voltageCell4,voltageCell5,voltageCell6,current(A),battery_temperature(f),altitude(feet),ascent(feet),flycStateRaw,flycState,message
0,27-10-20 5:05,13.81217048,99.71736717,0,Available with any HD 360 subscription,Available with any HD 360 subscription,91.78681298,0.656168,0,0,10,4,0,91.78681298,0,0,0,0,0,0,166.2,3.1,1.1,0,0,364,1684,364,364,162.5,0,99,4.206,4.157,4.165,0,0,0,0,84.74,91.78681298,0,6,P-GPS,
100,27-10-20 5:05,13.81217047,99.71736709,0,,,91.78681298,0.656168,0,0.029470277,10,4,0,91.78681298,0,0,0.029470277,0,0,0,166.2,3,1.1,0,0,364,1684,364,364,162.5,0,99,4.206,4.157,4.165,0,0,0,0,84.74,91.78681298,0,41,Motors_Started,
200,27-10-20 5:05,13.81217045,99.71736701,0,,,91.78681298,0.656168,0,0.058286419,10,4,0,91.78681298,0,0,0.058286419,0,0,0,166.2,3,1.1,0,0,364,1684,364,364,162.5,0,99,4.206,4.157,4.165,0,0,0,0,84.74,91.78681298,0,41,Motors_Started,
300,27-10-20 5:05,13.81217043,99.71736695,0,,,91.78681298,0.656168,0,0.081372706,10,4,0,91.78681298,0,0,0.081372706,0,0,0,166.2,3.1,1.1,0,0,364,1684,364,364,162.5,0,99,4.206,4.157,4.165,0,0,0,0,84.74,91.78681298,0,41,Motors_Started,
400,27-10-20 5:05,13.8121704,99.71736688,0,,,91.78681298,0.656168,0,0.106264767,10,4,0,91.78681298,0,0,0.106264767,0,0,0,166.2,3.1,1.1,0,0,364,1684,364,364,162.5,0,99,4.206,4.157,4.165,0,0,0,0,84.74,91.78681298,0,41,Motors_Started,
500,27-10-20 5:05,13.81217036,99.71736679,0,,,91.78681298,0.656168,0,0.140945543,10,4,0,91.78681298,0,0,0.140945543,0,0,0,165.9,3,1.1,0,0,399,1684,1024,963,162.5,0,99,4.206,4.157,4.165,0,0,0,0,84.74,91.78681298,0,41,Motors_Started,
600,27-10-20 5:05,13.81217031,99.71736671,0,,,91.78681298,0.656168,0,0.173112866,10,4,0,91.78681298,0,0,0.173112866,0,0,0,165,3,1.1,0,0,1024,1024,1024,1024,163.8,0,99,4.206,4.157,4.165,0,0,0,0,84.74,91.78681298,0,41,Motors_Started,
700,27-10-20 5:05,13.8121703,99.71736665,0,,,91.78681298,0.656168,0,0.193712277,10,4,0,91.78681298,0,0,0.193712277,0,0,0,164.9,3.1,1,0,0,1024,1024,1024,1024,164.1,0,99,4.206,4.157,4.165,0,0,0,0,84.74,91.78681298,0,41,Motors_Started,
800,27-10-20 5:05,13.81217028,99.71736658,0,,,91.78681298,0.656168,0,0.219032815,10,4,0,91.78681298,0,0,0.219032815,0,0,0,164.8,3.1,1.1,0,0,1024,1024,1024,1024,164.2,0,99,4.206,4.157,4.165,0,0,0,0,84.74,91.78681298,0,41,Motors_Started,Setting new Return-To-Home altitude to 35m (115 ft). Data Recorder File Index is 169. Setting new Maximum Flight Altitude to 450m (1476 ft)
900,27-10-20 5:05,13.81217026,99.71736649,0,,,91.78681298,0.656168,0,0.251948827,10,4,0,91.78681298,0,0,0.251948827,0,0,0,164.7,3,1.1,0,0,1024,1024,1024,1024,164.3,0,99,4.206,4.157,4.165,0,0,0,0,84.74,91.78681298,0,41,Motors_Started,
1000,27-10-20 5:05,13.81217023,99.71736641,0,,,91.78681298,0.656168,0,0.283268382,10,4,0,91.78681298,0,0,0.283268382,0,0,0,164.4,3,1.2,0,0,1024,1024,1024,1024,164.3,0,99,4.206,4.157,4.165,0,0,0,0,84.74,91.78681298,0,41,Motors_Started,
1100,27-10-20 5:05,13.81217019,99.71736635,0,,,91.78681298,0.656168,0,0.309582359,10,4,0,91.78681298,0,0,0.309582359,0,0,0,164.3,3.1,1.2,0,0,1024,1024,1024,1024,164.3,0,99,4.206,4.157,4.165,0,0,0,0,84.74,91.78681298,0,41,Motors_Started,
1200,27-10-20 5:05,13.81217015,99.71736628,0,,,91.78681298,0.656168,0,0.337096467,10,4,0,91.78681298,0,0,0.337096467,0,0,0,164.3,3.1,1.1,0,0,1024,1024,1024,1024,164.3,0,99,4.206,4.157,4.165,0,0,0,0,84.74,91.78681298,0,41,Motors_Started,
1300,27-10-20 5:05,13.81217014,99.71736623,0,,,91.78681298,0.656168,0,0.354160116,10,4,12.619,91.78681298,0,0,0.354160116,0,0,0,164.3,3.1,1.1,0,0,1024,1024,1024,1024,164.3,0,99,4.206,4.157,4.165,0,0,0,3.194,84.74,91.78681298,0,10,Assisted_Takeoff,
1400,27-10-20 5:05,13.81217012,99.71736617,0,,,91.78681298,0.656168,0,0.375232952,9,4,12.619,91.78681298,0,0,0.375232952,0,0,0,164.2,3,1.2,0,0,1024,1024,1024,1024,164.3,0,99,4.206,4.157,4.165,0,0,0,3.194,84.74,91.78681298,0,10,Assisted_Takeoff,
1500,27-10-20 5:05,13.81217009,99.71736609,0,,,91.78681298,0.656168,0,0.406335315,9,4,12.619,91.78681298,0,0,0.406335315,0,0,0,164.2,3,1.1,0,0,1024,1024,1024,1024,164.3,0,99,4.206,4.157,4.165,0,0,0,3.194,84.74,91.78681298,0,10,Assisted_Takeoff,
1600,27-10-20 5:05,13.81217006,99.71736601,0,,,91.78681298,0.656168,0,0.437103032,9,4,12.619,91.78681298,0,0,0.437103032,0,0,0,164.2,3,1.2,0,0,1024,1024,1024,1024,164.3,0,99,4.206,4.157,4.165,0,0,0,3.194,84.74,91.78681298,0,10,Assisted_Takeoff,
1700,27-10-20 5:05,13.81217005,99.71736595,0,,,91.78681298,0.656168,0,0.458103689,9,4,12.619,91.78681298,0,0,0.458103689,0,0,0,164.2,3.1,1.1,0,0,1024,1024,1024,1024,164.3,0,99,4.206,4.157,4.165,0,0,0,3.194,84.74,91.78681298,0,10,Assisted_Takeoff,
1800,27-10-20 5:05,13.81217003,99.71736589,0,,,91.78681298,0.656168,0,0.48181432,9,4,12.619,91.78681298,0,0,0.48181432,0,0,0,164.2,3.1,1.1,0,0,1024,1024,1024,1024,164.3,0,99,4.206,4.157,4.165,0,0,0,3.194,84.74,91.78681298,0,10,Assisted_Takeoff,
1900,27-10-20 5:05,13.81217,99.7173658,0,,,91.78681298,0.656168,0,0.516026919,9,4,12.619,91.78681298,0,0,0.516026919,0,0,0,164.2,3,1.1,0,0,1024,1024,1024,1024,164.3,0,99,4.206,4.157,4.165,0,0,0,3.194,84.74,91.78681298,0,10,Assisted_Takeoff,
2000,27-10-20 5:05,13.81216997,99.71736571,0,,,91.78681298,0.656168,0,0.549087944,9,4,12.619,91.78681298,0,0,0.549087944,0,0,0,164.2,3.1,1.1,0,0,1024,1024,1024,1024,164.3,0,99,4.206,4.157,4.165,0,0,0,3.194,84.74,91.78681298,0,10,Assisted_Takeoff,
2100,27-10-20 5:05,13.81216992,99.71736565,0,,,91.78681298,0.656168,0,0.577021016,9,4,12.619,91.78681298,0,0,0.577021016,0,0,0,164.2,3,1.2,0,0,1024,1024,1024,1024,164.3,0,99,4.206,4.157,4.165,0,0,0,3.194,84.74,91.78681298,0,10,Assisted_Takeoff,
2200,27-10-20 5:05,13.81216987,99.71736558,0,,,91.78681298,0.656168,0,0.605876004,9,4,12.619,91.78681298,0,0,0.605876004,0,0,0,164.2,3.1,1.1,0,0,1024,1024,1045,1024,164.3,0,99,4.206,4.157,4.165,0,0,0,3.194,84.74,91.78681298,0,10,Assisted_Takeoff,
2300,27-10-20 5:05,13.81216981,99.71736553,0,,,91.78681298,0.656168,0,0.629865506,9,4,12.64,91.78681298,0,0,0.629865506,0,0,0,164.2,3.1,1.1,0,0,1024,1024,1282,1024,164.3,0,99,4.206,4.157,4.165,0,0,0,3.194,84.74,91.78681298,0,10,Assisted_Takeoff,
2400,27-10-20 5:05,13.81216976,99.71736547,0,,,91.78681298,0.656168,0,0.656302514,9,4,12.64,91.78681298,0,0,0.656302514,0,0,0,164.2,3,1.1,0,0,1024,1024,1496,1024,164.3,0,99,4.206,4.157,4.165,0,0,0,3.194,84.74,91.78681298,0,10,Assisted_Takeoff,
2500,27-10-20 5:05,13.81216974,99.71736543,0,,,91.78681298,0.656168,0,0.672549234,10,4,12.64,91.78681298,0,0,0.672549234,0,0,0,164.2,3,1.1,0,0,1024,1024,1496,1024,164.3,0,99,4.206,4.157,4.165,0,0,0,3.194,84.74,91.78681298,0,10,Assisted_Takeoff,
2600,27-10-20 5:05,13.81216971,99.71736538,0,,,91.78681298,0.656168,0,0.693444904,10,4,12.64,91.78681298,0,0,0.693444904,0,0,0,164.2,3.1,1.1,0,0,1024,1024,1554,1024,164.3,0,99,4.206,4.157,4.165,0,0,0,3.194,84.74,91.78681298,0,10,Assisted_Takeoff,
2700,27-10-20 5:05,13.81216971,99.7173653,0,,,91.78681298,0.656168,0,0.717693593,10,4,12.64,91.78681298,0,0,0.717693593,0,0,0,164.1,3,1.1,0,0,1024,1024,1603,1024,164.3,0,99,4.206,4.157,4.165,0,0,0,3.194,84.74,91.78681298,0,10,Assisted_Takeoff,
2800,27-10-20 5:05,13.81216971,99.71736522,0,,,91.78681298,0.656168,0,0.744458685,10,4,12.64,91.78681298,0,0,0.744458685,0,0,0,163.9,2.9,1.1,0,0,1024,1024,1603,1024,164.3,0,99,4.206,4.157,4.165,0,0,0,3.194,84.74,91.78681298,0,10,Assisted_Takeoff,
2900,27-10-20 5:05,13.8121697,99.71736519,0,,,91.78681298,0.656168,0,0.754763804,10,4,12.64,91.78681298,0,0,0.754763804,0,0,0,163.9,1.3,1,0,0,1024,1024,1656,1024,164.2,0,99,4.206,4.157,4.165,0,0,0,3.194,84.74,91.78681298,0,10,Assisted_Takeoff,
3000,27-10-20 5:05,13.81216971,99.71736514,0,,,91.78681298,0.656168,0,0.772083358,10,4,12.64,91.78681298,0,0,0.772083358,0,0,-0.223694,163.6,-0.4,0.8,0,0,1024,1024,1674,1024,164.2,0,99,4.206,4.157,4.165,0,0,0,3.194,84.74,91.78681298,0,10,Assisted_Takeoff,
3100,27-10-20 5:05,13.81216973,99.71736504,0,,,91.78681298,0.656168,0.223694,0.800301863,10,4,12.64,91.78681298,0,0.223694,0.800301863,0.223694,0,-0.671082,163.9,-0.3,0.5,0,0,1024,1024,1677,1024,164.2,0,99,4.206,4.157,4.165,0,0,0,3.194,84.74,91.78681298,0,6,P-GPS,
3200,27-10-20 5:05,13.81216974,99.71736494,0,,,91.78681298,0.656168,0,0.833297271,10,4,12.64,91.78681298,0,0.223694,0.833297271,0,0,-0.894776,164,0,0.1,0,0,1024,1024,1679,1024,164.2,0,99,4.206,4.157,4.165,0,0,0,3.194,84.74,91.78681298,0,6,P-GPS,
3300,27-10-20 5:05,13.81216978,99.71736446,0,,,91.78681298,0.984252,0,0.992122735,10,4,12.403,91.78681298,0,0.223694,0.992122735,0,0,-1.342164,164.2,0,-0.4,0,0,1024,1024,1684,1024,164.2,0,99,4.223,4.217,4.217,0,0,0,1.614,84.74,91.78681298,0,6,P-GPS,
3400,27-10-20 5:05,13.8121698,99.71736411,0.328084,,,92.11489698,1.312336,0,1.112926545,10,4,12.403,92.11489698,0.328084,0.223694,1.112926545,0,0,-1.789552,164.1,0.4,-0.3,0,0,1024,1024,1684,1024,164.2,0,99,4.223,4.217,4.217,0,0,0,1.614,84.74,92.11489698,0.328084,6,P-GPS,
3500,27-10-20 5:05,13.81216982,99.71736378,0.656168,,,92.44298098,1.64042,0,1.223992821,10,4,12.403,92.44298098,0.656168,0.223694,1.223992821,0,0,-2.23694,164.1,0.1,0,0,0,1024,1024,1684,1024,164.2,0,99,4.223,4.217,4.217,0,0,0,1.614,84.74,92.44298098,0.656168,6,P-GPS,
3600,27-10-20 5:05,13.81216983,99.71736353,0.984252,,,92.77106498,1.968504,0,1.310751354,10,4,12.403,92.77106498,0.984252,0.223694,1.310751354,0,0,-2.684328,164.1,0.3,0.3,0,0,1024,1024,1684,1024,164.2,0,99,4.223,4.217,4.217,0,0,0,1.614,84.74,92.77106498,0.984252,6,P-GPS,
3700,27-10-20 5:05,13.81216972,99.71736281,1.312336,,,93.09914898,2.296588,0.223694,1.570259237,10,4,12.403,93.09914898,1.312336,0.223694,1.570259237,-0.223694,0,-3.35541,163.9,0.7,0.2,0,0,1024,1024,1684,1024,164.2,0,99,4.223,4.217,4.217,0,0,0,1.614,84.74,93.09914898,1.312336,6,P-GPS,
3800,27-10-20 5:05,13.81216963,99.71736226,1.968504,,,93.75531698,0,0.223694,1.767477091,10,4,12.403,93.75531698,1.968504,0.223694,1.767477091,-0.223694,0,-4.250186,164,1.4,0.1,0,0,1024,1024,1684,1024,164.2,0,99,4.223,4.217,4.217,0,0,0,1.614,84.74,93.75531698,1.968504,6,P-GPS,Home Point Recorded. RTH Altitude:  35m.
3900,27-10-20 5:05,13.81216962,99.71736164,2.624672,,,94.41148498,0,0.223694,1.982244158,10,4,12.403,94.41148498,2.624672,0.223694,1.982244158,0,0,-5.144962,164,2.1,0,0,0,1031,1024,1684,1024,164.2,0,99,4.223,4.217,4.217,0,0,0,1.614,84.74,94.41148498,2.624672,6,P-GPS,
4000,27-10-20 5:05,13.81216964,99.71736113,3.608924,,,95.39573698,3.937008,0,2.161620804,10,4,12.403,95.39573698,3.608924,0.223694,2.161620804,0,0,-6.039738,163.8,2,0.1,0,0,1038,1024,1684,1024,164.2,0,99,4.223,4.217,4.217,0,0,0,1.614,84.74,95.39573698,3.608924,6,P-GPS,
4100,27-10-20 5:05,13.81216971,99.71736072,4.593176,,,96.37998898,4.92126,0,2.301512541,10,4,12.403,96.37998898,4.593176,0.223694,2.301512541,0,0,-6.934514,163.8,1.1,0.2,0,0,1038,1024,1684,1024,164.2,0,99,4.223,4.217,4.217,0,0,0,1.614,84.74,96.37998898,4.593176,6,P-GPS,
4200,27-10-20 5:05,13.8121698,99.71736035,5.577428,,,97.36424098,5.577428,0,2.426643778,10,4,12.403,97.36424098,5.577428,0.223694,2.426643778,0,0,-7.605596,163.8,0.7,0,0,0,1041,1024,1684,1024,164.2,0,99,4.223,4.217,4.217,0,0,0,1.614,84.74,97.36424098,5.577428,6,P-GPS,
4300,27-10-20 5:05,13.81216968,99.71736038,6.889764,,,98.67657698,6.56168,0,2.423339973,10,4,12.209,98.67657698,6.889764,0.223694,2.426643778,0,0,-8.500372,163.9,0,0,0,0,1047,1024,1684,1024,164.2,0,99,4.005,3.999,3.986,0,0,0,11.27,84.74,98.67657698,6.889764,6,P-GPS,
4400,27-10-20 5:05,13.81216961,99.71736032,8.2021,,,99.98891298,7.874016,0.223694,2.445525013,10,4,12.209,99.98891298,8.2021,0.223694,2.445525013,0.223694,0,-8.94776,164,-1.1,0.3,0,0,1078,1024,1684,1024,164.2,0,99,4.005,3.999,3.986,0,0,0,11.27,84.74,99.98891298,8.2021,6,P-GPS,
4500,27-10-20 5:05,13.81216944,99.71736029,9.514436,,,101.301249,9.186352,0,2.466699554,10,4,12.209,101.301249,9.514436,0.223694,2.466699554,0,0,-9.395148,164.2,-1,0.4,0,0,1078,1024,1684,1024,164.2,0,99,4.005,3.999,3.986,0,0,0,11.27,84.74,101.301249,9.514436,6,P-GPS,
4600,27-10-20 5:05,13.81216929,99.71736021,11.154856,,,102.941669,10.498688,0,2.503878033,10,4,12.209,102.941669,11.154856,0.223694,2.503878033,0,0,-9.395148,164.1,-0.6,0.5,0,0,1077,1024,1684,1024,164.2,0,99,4.005,3.999,3.986,0,0,0,11.27,84.74,102.941669,11.154856,6,P-GPS,
4700,27-10-20 5:05,13.81216907,99.71736022,12.467192,,,104.254005,11.811024,0,2.514383283,10,4,12.209,104.254005,12.467192,0.223694,2.514383283,0,0,-9.395148,164,-0.4,0.6,0,0,1077,1024,1684,1024,164.2,0,99,4.005,3.999,3.986,0,0,0,11.27,84.74,104.254005,12.467192,6,P-GPS,
4800,27-10-20 5:05,13.81216887,99.71736019,13.779528,,,105.566341,13.12336,0,2.542775672,10,4,12.209,105.566341,13.779528,0.223694,2.542775672,0,0,-9.395148,164,-0.3,0.5,0,0,1059,1024,1684,1024,164.2,0,99,4.005,3.999,3.986,0,0,0,11.27,84.74,105.566341,13.779528,6,P-GPS,
4900,27-10-20 5:05,13.81216884,99.71736032,15.091864,,,106.878677,14.435696,0,2.498809135,10,4,12.209,106.878677,15.091864,0.223694,2.542775672,0,0,-9.171454,164.1,-0.1,0.2,0,0,1055,1024,1684,1024,164.2,0,99,4.005,3.999,3.986,0,0,0,11.27,84.74,106.878677,15.091864,6,P-GPS,
5000,27-10-20 5:05,13.81216876,99.71736039,16.4042,,,108.191013,15.748032,0,2.481633938,10,4,12.209,108.191013,16.4042,0.223694,2.542775672,0,0,-9.171454,164.2,0.2,0,0,0,1051,1024,1684,1024,164.2,0,99,4.005,3.999,3.986,0,0,0,11.27,84.74,108.191013,16.4042,6,P-GPS,
5100,27-10-20 5:05,13.81216881,99.71736055,18.04462,,,109.831433,17.060368,0.223694,2.423536823,10,4,12.209,109.831433,18.04462,0.223694,2.542775672,0,0.223694,-8.94776,164.3,0.1,0.5,0,0,1033,1024,1684,1024,164.2,0,99,4.005,3.999,3.986,0,0,0,11.27,84.74,109.831433,18.04462,6,P-GPS,
5200,27-10-20 5:05,13.81216879,99.71736065,19.356956,,,111.143769,18.372704,0.223694,2.390105063,10,4,12.209,111.143769,19.356956,0.223694,2.542775672,0,0.223694,-8.94776,164.2,0.4,0.3,0,0,1024,1024,1684,1024,164.2,0,99,4.005,3.999,3.986,0,0,0,11.27,84.74,111.143769,19.356956,6,P-GPS,
5300,27-10-20 5:05,13.81216902,99.717361,20.669292,,,112.456105,19.68504,0.223694,2.249186424,10,4,11.928,112.456105,20.669292,0.223694,2.542775672,0,0.223694,-8.94776,163.9,0.5,0.6,0,0,1024,1024,1684,1024,164.2,0,99,3.97,3.968,3.962,0,0,0,11.866,84.74,112.456105,20.669292,6,P-GPS,
5400,27-10-20 5:05,13.81216915,99.71736125,21.981628,,,113.768441,20.997376,0.223694,2.151378022,10,4,11.928,113.768441,21.981628,0.223694,2.542775672,0,0.223694,-8.94776,163.8,0.8,1.5,0,0,1024,1024,1684,1024,164.2,0,99,3.97,3.968,3.962,0,0,0,11.866,84.74,113.768441,21.981628,6,P-GPS,
5500,27-10-20 5:05,13.81216949,99.7173615,23.293964,,,115.080777,22.309712,0.223694,2.03974416,10,4,11.928,115.080777,23.293964,0.223694,2.542775672,0,0.223694,-8.94776,163.9,0.5,2,0,0,1024,1024,1684,1024,164.2,0,99,3.97,3.968,3.962,0,0,0,11.866,84.74,115.080777,23.293964,6,P-GPS,
5600,27-10-20 5:05,13.81216971,99.71736167,23.950132,,,115.736945,23.622048,0,1.967772373,10,4,11.928,115.736945,23.950132,0.223694,2.542775672,0,0,-8.276678,164.1,0,1.4,0,0,1024,1024,1684,1024,164.2,0,99,3.97,3.968,3.962,0,0,0,11.866,84.74,115.736945,23.950132,6,P-GPS,
5700,27-10-20 5:05,13.8121702,99.71736197,25.262468,,,117.049281,24.6063,0,1.845833392,10,4,11.928,117.049281,25.262468,0.223694,2.542775672,0,0,-8.052984,164,0.4,1.4,0,0,1024,1024,1684,1024,164.2,0,99,3.97,3.968,3.962,0,0,0,11.866,84.74,117.049281,25.262468,6,P-GPS,
5800,27-10-20 5:05,13.81217053,99.71736218,26.24672,,,118.033533,25.918636,0,1.766912786,10,4,11.928,118.033533,26.24672,0.223694,2.542775672,0,0,-7.82929,164,0.8,1.1,0,0,1024,1024,1684,1024,164.2,0,99,3.97,3.968,3.962,0,0,0,11.866,84.74,118.033533,26.24672,6,P-GPS,
5900,27-10-20 5:05,13.81217094,99.71736247,27.559056,,,119.345869,27.230972,0,1.674271707,10,4,11.928,119.345869,27.559056,0.223694,2.542775672,0,0,-7.82929,164.2,0.7,0.9,0,0,1024,1024,1684,1024,164.2,0,99,3.97,3.968,3.962,0,0,0,11.866,84.74,119.345869,27.559056,6,P-GPS,
6000,27-10-20 5:05,13.81217126,99.71736268,28.543308,,,120.330121,28.543308,0,1.614471836,10,4,11.928,120.330121,28.543308,0.223694,2.542775672,0,0,-7.82929,164.1,0.4,1,0,0,1024,1024,1684,1024,164.2,0,99,3.97,3.968,3.962,0,0,0,11.866,84.74,120.330121,28.543308,6,P-GPS,
6100,27-10-20 5:05,13.81217167,99.71736283,29.855644,,,121.642457,29.855644,0,1.596620786,10,4,11.928,121.642457,29.855644,0.223694,2.542775672,0,0,-8.052984,164,0.1,0.9,0,0,1024,1024,1684,1024,164.2,0,99,3.97,3.968,3.962,0,0,0,11.866,84.74,121.642457,29.855644,6,P-GPS,
6200,27-10-20 5:05,13.81217199,99.71736296,30.839896,,,122.626709,31.16798,0,1.590554513,10,4,11.928,122.626709,30.839896,0.223694,2.542775672,0,0,-8.276678,164.2,0,0.8,0,0,1024,1024,1684,1024,164.2,0,99,3.97,3.968,3.962,0,0,0,11.866,84.74,122.626709,30.839896,6,P-GPS,
6300,27-10-20 5:05,13.81217232,99.71736299,32.152232,,,123.939045,32.152232,0,1.626141784,10,4,11.82,123.939045,32.152232,0.223694,2.542775672,0,0,-8.276678,164.1,-0.3,0.8,0,0,1024,1024,1684,1024,164.2,0,99,3.97,3.968,3.962,0,0,0,11.866,84.74,123.939045,32.152232,6,P-GPS,
6400,27-10-20 5:05,13.81217258,99.71736304,33.464568,,,125.251381,33.464568,0,1.652106352,10,4,11.82,125.251381,33.464568,0.223694,2.542775672,0,0,-8.052984,164.1,0.2,0.6,0,0,1024,1024,1684,1024,164.2,0,99,3.97,3.968,3.962,0,0,0,11.866,84.74,125.251381,33.464568,6,P-GPS,
6500,27-10-20 5:05,13.81217278,99.71736306,34.44882,,,126.235633,34.44882,0,1.680692311,10,4,11.82,126.235633,34.44882,0.223694,2.542775672,0,0,-8.276678,164.3,0.6,0.2,0,0,1024,1024,1684,1024,164.2,0,99,3.97,3.968,3.962,0,0,0,11.866,84.74,126.235633,34.44882,6,P-GPS,
6600,27-10-20 5:05,13.81217296,99.71736311,35.761156,,,127.547969,35.433072,0,1.700433125,10,4,11.82,127.547969,35.761156,0.223694,2.542775672,0,0,-8.276678,164.1,0.8,0.7,0,0,1024,1024,1684,1024,164.2,0,99,3.97,3.968,3.962,0,0,0,11.866,84.74,127.547969,35.761156,6,P-GPS,
6700,27-10-20 5:05,13.81217313,99.71736318,37.073492,,,128.860305,36.417324,0,1.711558454,10,4,11.82,128.860305,37.073492,0.223694,2.542775672,0,0,-8.276678,164.2,1,0.9,0,0,1024,1024,1684,1024,164.2,0,99,3.97,3.968,3.962,0,0,0,11.866,84.74,128.860305,37.073492,6,P-GPS,
6800,27-10-20 5:05,13.8121733,99.71736326,38.057744,,,129.844557,37.073492,0,1.725193625,10,4,11.82,129.844557,38.057744,0.223694,2.542775672,0,0,-8.276678,164.2,1.2,0,0,0,1024,1024,1684,1024,164.2,0,99,3.97,3.968,3.962,0,0,0,11.866,84.74,129.844557,38.057744,6,P-GPS,
6900,27-10-20 5:05,13.8121736,99.71736345,39.37008,,,131.156893,37.72966,0,1.742851106,10,4,11.82,131.156893,39.37008,0.223694,2.542775672,0,0,-8.276678,164,0.9,0.3,0,0,1024,1024,1684,1024,164.2,0,99,3.97,3.968,3.962,0,0,0,11.866,84.74,131.156893,39.37008,6,P-GPS,
7000,27-10-20 5:05,13.81217388,99.71736362,40.682416,,,132.469229,38.713912,0,1.767306487,10,4,11.82,132.469229,40.682416,0.223694,2.542775672,0,0,-8.500372,164,0.5,1.2,0,0,1024,1024,1684,1024,164.2,0,99,3.97,3.968,3.962,0,0,0,11.866,84.74,132.469229,40.682416,6,P-GPS,
7100,27-10-20 5:05,13.8121741,99.71736383,41.994752,,,133.781565,39.37008,0,1.771788114,10,4,11.82,133.781565,41.994752,0.223694,2.542775672,0,0,-8.500372,164.2,0.7,2.1,0,0,1024,1024,1684,1024,164.2,0,99,3.97,3.968,3.962,0,0,0,11.866,84.74,133.781565,41.994752,6,P-GPS,
7200,27-10-20 5:05,13.81217431,99.71736401,43.307088,,,135.093901,40.026248,0,1.790629979,10,4,11.82,135.093901,43.307088,0.223694,2.542775672,0,0,-8.276678,164,0.6,2.8,0,0,1024,1024,1684,1125,164.2,0,99,3.97,3.968,3.962,0,0,0,11.866,84.74,135.093901,43.307088,6,P-GPS,
7300,27-10-20 5:05,13.81217455,99.71736407,44.29134,,,136.078153,40.354332,0,1.846279587,10,4,11.907,136.078153,44.29134,0.223694,2.542775672,0,0,-8.276678,164.2,0.1,1.8,0,0,1024,1024,1684,1160,164.4,0,99,3.945,3.943,3.935,0,0,0,11.908,84.92,136.078153,44.29134,6,P-GPS,
7400,27-10-20 5:05,13.81217477,99.71736413,45.603676,,,137.390489,41.0105,0,1.899081426,10,4,11.907,137.390489,45.603676,0.223694,2.542775672,0,0,-8.276678,164.1,0.2,1.5,0,0,1024,1024,1684,1161,164.6,0,99,3.945,3.943,3.935,0,0,0,11.908,84.92,137.390489,45.603676,6,P-GPS,
7500,27-10-20 5:05,13.81217495,99.71736416,46.916012,,,138.702825,42.322836,0,1.949829459,10,4,11.907,138.702825,46.916012,0.223694,2.542775672,0,0,-8.276678,164.2,1.2,1.8,0,0,1024,1024,1684,1197,165,0,99,3.945,3.943,3.935,0,0,0,11.908,84.92,138.702825,46.916012,6,P-GPS,
7600,27-10-20 5:05,13.81217514,99.71736417,47.900264,,,139.687077,43.635172,0,2.00314639,10,4,11.907,139.687077,47.900264,0.223694,2.542775672,0,0,-8.052984,164.5,1.6,0.8,0,0,1024,1024,1684,1209,165.3,0,99,3.945,3.943,3.935,0,0,0,11.908,84.92,139.687077,47.900264,6,P-GPS,
7700,27-10-20 5:05,13.81217526,99.71736412,49.2126,,,140.999413,44.619424,0,2.051328806,10,4,11.907,140.999413,49.2126,0.223694,2.542775672,0,0,-8.052984,164.7,0.5,1.2,0,0,1024,1024,1684,1211,166,0,99,3.945,3.943,3.935,0,0,0,11.908,84.92,140.999413,49.2126,6,P-GPS,
7800,27-10-20 5:05,13.81217541,99.71736408,50.524936,,,142.311749,45.93176,0,2.105767784,10,4,11.907,142.311749,50.524936,0.223694,2.542775672,0,0,-8.276678,165.1,-1.2,1,0,0,1024,1024,1684,1218,166.7,0,99,3.945,3.943,3.935,0,0,0,11.908,84.92,142.311749,50.524936,6,P-GPS,
7900,27-10-20 5:05,13.81217558,99.71736401,51.837272,,,143.624085,47.244096,0,2.171509256,10,4,11.907,143.624085,51.837272,0.223694,2.542775672,0,0,-8.500372,165.7,0.2,0.7,0,0,1024,1024,1684,1217,167.4,0,99,3.945,3.943,3.935,0,0,0,11.908,84.92,143.624085,51.837272,6,P-GPS,
8000,27-10-20 5:05,13.81217571,99.71736396,53.149608,,,144.936421,48.556432,0,2.220213326,10,4,11.907,144.936421,53.149608,0.223694,2.542775672,0,0,-8.724066,166.5,1.2,0.3,0,0,1024,1024,1684,1217,168.1,0,99,3.945,3.943,3.935,0,0,0,11.908,84.92,144.936421,53.149608,6,P-GPS,
8100,27-10-20 5:05,13.81217579,99.71736389,54.461944,,,146.248757,49.868768,0,2.258769757,10,4,11.907,146.248757,54.461944,0.223694,2.542775672,0,0,-8.724066,167.3,2,0.3,0,0,1024,1024,1684,1215,168.8,0,99,3.945,3.943,3.935,0,0,0,11.908,84.92,146.248757,54.461944,6,P-GPS,
8200,27-10-20 5:05,13.81217588,99.71736384,55.77428,,,147.561093,51.181104,0,2.298097186,10,4,11.907,147.561093,55.77428,0.223694,2.542775672,0,0,-8.94776,168,2.2,0.6,0,0,1024,1024,1684,1214,169.5,0,99,3.945,3.943,3.935,0,0,0,11.908,84.92,147.561093,55.77428,6,P-GPS,
8300,27-10-20 5:05,13.81217589,99.71736376,57.086616,,,148.873429,52.49344,0,2.314845875,10,4,11.734,148.873429,57.086616,0.223694,2.542775672,0,0,-8.94776,168.6,2,0,0,0,1024,1024,1684,1212,170.2,0,99,3.907,3.903,3.89,0,0,0,13.184,84.92,148.873429,57.086616,6,P-GPS,
8400,27-10-20 5:05,13.81217594,99.7173637,58.398952,,,150.185765,0,0,2.340823566,10,4,11.734,150.185765,58.398952,0.223694,2.542775672,0,0,-8.94776,169.4,1.8,-0.3,0,0,1024,1024,1684,1212,170.9,0,99,3.907,3.903,3.89,0,0,0,13.184,84.92,150.185765,58.398952,6,P-GPS,
8500,27-10-20 5:05,13.81217596,99.71736352,59.711288,,,151.498101,0,0,2.380633278,10,4,11.734,151.498101,59.711288,0.223694,2.542775672,0,0,-9.171454,170.1,-0.1,0.1,0,0,1024,1024,1684,1212,171.6,0,99,3.907,3.903,3.89,0,0,0,13.184,84.92,151.498101,59.711288,6,P-GPS,
8600,27-10-20 5:05,13.81217598,99.71736341,61.351708,,,153.138521,0,0,2.408661494,10,4,11.734,153.138521,61.351708,0.223694,2.542775672,0,0,-9.395148,171.2,0.2,2.1,0,0,1024,1024,1684,1212,172.3,0,99,3.907,3.903,3.89,0,0,0,13.184,84.92,153.138521,61.351708,6,P-GPS,
8700,27-10-20 5:05,13.81217597,99.71736334,62.664044,,,154.450857,0,0.223694,2.417231048,10,4,11.734,154.450857,62.664044,0.223694,2.542775672,-0.223694,0,-9.395148,171.6,1.4,2.4,0,0,1024,1024,1684,1213,173,0,99,3.907,3.903,3.89,0,0,0,13.184,84.92,154.450857,62.664044,6,P-GPS,
8800,27-10-20 5:05,13.81217594,99.71736328,63.97638,,,155.763193,0,0.223694,2.423645091,10,4,11.734,155.763193,63.97638,0.223694,2.542775672,-0.223694,0,-9.171454,172.3,2.8,2.1,0,0,1024,1024,1684,1212,173.7,0,99,3.907,3.903,3.89,0,0,0,13.184,84.92,155.763193,63.97638,6,P-GPS,
8900,27-10-20 5:05,13.81217591,99.71736321,65.6168,,,157.403613,0,0,2.426505983,10,4,11.734,157.403613,65.6168,0.223694,2.542775672,0,0,-9.171454,172.9,3.5,1,0,0,1024,1024,1684,1214,174.3,0,99,3.907,3.903,3.89,0,0,0,13.184,84.92,157.403613,65.6168,6,P-GPS,
9000,27-10-20 5:05,13.81217591,99.71736314,66.929136,,,158.715949,0,0,2.441748766,10,4,11.734,158.715949,66.929136,0.223694,2.542775672,0,0,-9.395148,173.5,2.6,0.8,0,0,1024,1024,1684,1215,175,0,99,3.907,3.903,3.89,0,0,0,13.184,84.92,158.715949,66.929136,6,P-GPS,
9100,27-10-20 5:05,13.81217598,99.71736302,68.569556,,,160.356369,0,0,2.486423964,10,4,11.734,160.356369,68.569556,0.223694,2.542775672,0,0,-9.395148,174.2,1.8,0.9,0,0,1024,1024,1684,1215,175.7,0,99,3.907,3.903,3.89,0,0,0,13.184,84.92,160.356369,68.569556,6,P-GPS,
9200,27-10-20 5:05,13.81217604,99.71736292,69.881892,,,161.668705,0,0,2.52523302,10,4,11.734,161.668705,69.881892,0.223694,2.542775672,0,0,-9.171454,174.9,1.1,1,0,0,1024,1024,1684,1225,176.4,0,99,3.907,3.903,3.89,0,0,0,13.184,84.92,161.668705,69.881892,6,P-GPS,
9300,27-10-20 5:05,13.81217607,99.71736289,71.522312,,,163.309125,0,0,2.540275672,10,4,11.95,163.309125,71.522312,0.223694,2.542775672,0,0,-9.171454,175.8,1.1,1.3,0,0,1024,1024,1684,1241,177.2,0,99,3.907,3.903,3.89,0,0,0,13.184,84.92,163.309125,71.522312,6,P-GPS,
9400,27-10-20 5:05,13.81217607,99.71736286,72.834648,,,164.621461,0,0,2.546745488,10,4,11.95,164.621461,72.834648,0.223694,2.546745488,0,0,-9.171454,176.2,1.7,1.4,0,0,1024,1024,1684,1243,178,0,99,3.907,3.903,3.89,0,0,0,13.184,84.92,164.621461,72.834648,6,P-GPS,
9500,27-10-20 5:05,13.812176,99.71736284,74.475068,,,166.261881,0,0.223694,2.532687089,10,4,11.95,166.261881,74.475068,0.223694,2.546745488,-0.223694,0,-9.171454,177.5,2.9,2.1,0,0,1024,1024,1684,1263,178.9,0,99,3.907,3.903,3.89,0,0,0,13.184,84.92,166.261881,74.475068,6,P-GPS,
9600,27-10-20 5:05,13.81217593,99.71736282,75.787404,,,167.574217,0,0.223694,2.51617134,10,4,11.95,167.574217,75.787404,0.223694,2.546745488,-0.223694,0,-9.171454,177.8,3.4,2.9,0,0,1024,1024,1684,1267,179.9,0,99,3.907,3.903,3.89,0,0,0,13.184,84.92,167.574217,75.787404,6,P-GPS,
9700,27-10-20 5:05,13.81217581,99.71736273,77.427824,,,169.214637,0,0.223694,2.501945618,10,4,11.95,169.214637,77.427824,0.223694,2.546745488,-0.223694,0,-9.171454,179.1,3.8,2.6,0,0,1024,1024,1684,1269,181.1,0,99,3.907,3.903,3.89,0,0,0,13.184,84.92,169.214637,77.427824,6,P-GPS,
9800,27-10-20 5:05,13.81217572,99.71736264,79.068244,,,170.855057,0,0.223694,2.495249424,10,4,11.95,170.855057,79.068244,0.223694,2.546745488,-0.223694,0,-9.171454,179.6,3.9,2.1,0,0,1024,1024,1684,1269,182.2,0,99,3.907,3.903,3.89,0,0,0,13.184,84.92,170.855057,79.068244,6,P-GPS,
9900,27-10-20 5:05,13.81217559,99.71736253,80.38058,,,172.167393,0,0.223694,2.485219896,10,4,11.95,172.167393,80.38058,0.223694,2.546745488,-0.223694,0,-9.171454,181.1,3.9,2,0,0,1024,1024,1684,1276,183.4,0,99,3.907,3.903,3.89,0,0,0,13.184,84.92,172.167393,80.38058,6,P-GPS,
10000,27-10-20 5:05,13.81217548,99.71736242,82.021,,,173.807813,0,0.223694,2.481164778,10,4,11.95,173.807813,82.021,0.223694,2.546745488,-0.223694,0,-9.395148,182.1,4.8,2.1,0,0,1024,1024,1684,1284,184.6,0,99,3.907,3.903,3.89,0,0,0,13.184,84.92,173.807813,82.021,6,P-GPS,
10100,27-10-20 5:05,13.8121754,99.71736228,83.66142,,,175.448233,0,0.223694,2.495406904,10,4,11.95,175.448233,83.66142,0.223694,2.546745488,-0.223694,0,-9.171454,183.6,4.1,2.5,0,0,1024,1024,1684,1285,185.9,0,99,3.907,3.903,3.89,0,0,0,13.184,84.92,175.448233,83.66142,6,P-GPS,
10200,27-10-20 5:05,13.81217534,99.71736212,85.30184,,,177.088653,0,0.223694,2.516610973,10,4,11.95,177.088653,85.30184,0.223694,2.546745488,-0.223694,0,-9.395148,184.6,4.1,1.4,0,0,1024,1024,1684,1289,187.2,0,99,3.907,3.903,3.89,0,0,0,13.184,84.92,177.088653,85.30184,6,P-GPS,
10300,27-10-20 5:05,13.81217528,99.717362,86.94226,,,178.729073,0,0.223694,2.535810449,10,4,12.122,178.729073,86.94226,0.223694,2.546745488,-0.223694,0,-9.395148,186,4.6,1.4,0,0,1024,1024,1684,1323,188.5,0,99,3.919,3.919,3.909,0,0,0,12.114,85.1,178.729073,86.94226,6,P-GPS,
10400,27-10-20 5:05,13.81217523,99.71736189,88.58268,,,180.369493,0,0.223694,2.551958743,10,4,12.122,180.369493,88.58268,0.223694,2.551958743,-0.223694,0,-9.395148,187.3,5.4,1.7,0,0,1024,1024,1684,1336,190.1,0,99,3.919,3.919,3.909,0,0,0,12.114,85.1,180.369493,88.58268,6,P-GPS,
10500,27-10-20 5:05,13.8121752,99.71736175,90.2231,,,182.009913,0,0,2.580564387,10,4,12.122,182.009913,90.2231,0.223694,2.580564387,0,0,-9.395148,188.4,5.2,1.8,0,0,1024,1024,1684,1336,192,0,99,3.919,3.919,3.909,0,0,0,12.114,85.1,182.009913,90.2231,6,P-GPS,
10600,27-10-20 5:05,13.81217519,99.71736163,91.535436,,,183.322249,0,0,2.607529611,10,4,12.122,183.322249,91.535436,0.223694,2.607529611,0,0,-9.395148,189.9,4.6,2.5,0,0,1024,1024,1684,1341,193.9,0,99,3.919,3.919,3.909,0,0,0,12.114,85.1,183.322249,91.535436,6,P-GPS,
10700,27-10-20 5:05,13.81217515,99.71736149,93.175856,,,184.962669,0,0,2.635872788,10,4,12.122,184.962669,93.175856,0.223694,2.635872788,0,0,-9.171454,191.9,4.2,2.8,0,0,1024,1024,1684,1348,195.9,0,99,3.919,3.919,3.909,0,0,0,12.114,85.1,184.962669,93.175856,6,P-GPS,
10800,27-10-20 5:05,13.81217512,99.71736137,94.816276,,,186.603089,0,0,2.66353355,10,4,12.122,186.603089,94.816276,0.223694,2.66353355,0,0,-9.171454,193.9,4.2,3.6,0,0,1024,1024,1684,1354,197.9,0,99,3.919,3.919,3.909,0,0,0,12.114,85.1,186.603089,94.816276,6,P-GPS,
10900,27-10-20 5:05,13.81217509,99.71736122,96.456696,,,188.243509,0,0,2.694717934,10,4,12.122,188.243509,96.456696,0.223694,2.694717934,0,0,-9.171454,195.7,3.9,3.6,0,0,1024,1024,1684,1358,200,0,99,3.919,3.919,3.909,0,0,0,12.114,85.1,188.243509,96.456696,6,P-GPS,
11000,27-10-20 5:05,13.81217506,99.71736108,98.097116,,,189.883929,0,0,2.730141163,10,4,12.122,189.883929,98.097116,0.223694,2.730141163,0,0,-9.171454,197.1,4.2,2.8,0,0,1024,1024,1684,1373,202.2,0,99,3.919,3.919,3.909,0,0,0,12.114,85.1,189.883929,98.097116,6,P-GPS,
11100,27-10-20 5:05,13.81217502,99.71736087,99.737536,,,191.524349,0,0,2.778756651,10,4,12.122,191.524349,99.737536,0.223694,2.778756651,0,0,-9.171454,199.4,3.9,3.3,0,0,1024,1024,1684,1393,204.5,0,99,3.919,3.919,3.909,0,0,0,12.114,85.1,191.524349,99.737536,6,P-GPS,
11200,27-10-20 5:05,13.812175,99.71736069,101.377956,,,193.164769,0,0,2.826686442,10,4,12.122,193.164769,101.377956,0.223694,2.826686442,0,0,-9.395148,201.9,4.2,3.4,0,0,1024,1024,1649,1536,207.1,0,99,3.919,3.919,3.909,0,0,0,12.114,85.1,193.164769,101.377956,6,P-GPS,
11300,27-10-20 5:05,13.81217498,99.71736046,103.018376,,,194.805189,0,0,2.89092857,10,4,11.971,194.805189,103.018376,0.223694,2.89092857,0,0,-9.395148,204.4,4.6,3.7,0,0,1024,1024,1024,1024,209.5,0,99,3.933,3.93,3.922,0,0,0,10.918,85.1,194.805189,103.018376,6,P-GPS,
11400,27-10-20 5:05,13.81217498,99.71736024,104.658796,,,196.445609,0,0,2.953851801,10,4,11.971,196.445609,104.658796,0.223694,2.953851801,0,0,-9.171454,207.2,4.8,3.7,0,0,1024,1024,1024,1024,209.5,0,99,3.933,3.93,3.922,0,0,0,10.918,85.1,196.445609,104.658796,6,P-GPS,
11500,27-10-20 5:05,13.81217495,99.71736006,106.299216,,,198.086029,0,0,3.002401671,10,4,11.971,198.086029,106.299216,0.223694,3.002401671,0,0,-8.276678,208.6,5.1,4.1,0,0,1026,1024,1024,1024,209.5,0,99,3.933,3.93,3.922,0,0,0,10.918,85.1,198.086029,106.299216,6,P-GPS,
11600,27-10-20 5:05,13.81217494,99.71735988,107.611552,,,199.398365,0,0,3.051820964,10,4,11.971,199.398365,107.611552,0.223694,3.051820964,0,0,-7.605596,209.4,4.7,4.7,0,0,1027,1024,1024,1024,209.5,0,99,3.933,3.93,3.922,0,0,0,10.918,85.1,199.398365,107.611552,6,P-GPS,
11700,27-10-20 5:05,13.81217495,99.71735971,108.923888,,,200.710701,0,0,3.104708105,10,4,11.971,200.710701,108.923888,0.223694,3.104708105,0,0,-6.71082,209.7,4.6,5.1,0,0,1027,1024,1024,1024,209.5,0,99,3.933,3.93,3.922,0,0,0,10.918,85.1,200.710701,108.923888,6,P-GPS,
11800,27-10-20 5:05,13.81217496,99.71735954,109.90814,,,201.694953,0,0,3.158720574,10,4,11.971,201.694953,109.90814,0.223694,3.158720574,0,0,-5.59235,209.8,4.4,5,0,0,1033,1024,1024,1024,209.5,0,99,3.933,3.93,3.922,0,0,0,10.918,85.1,201.694953,109.90814,6,P-GPS,
11900,27-10-20 5:05,13.81217496,99.71735937,110.892392,,,202.679205,0,0,3.210518475,10,4,11.971,202.679205,110.892392,0.223694,3.210518475,0,0,-4.47388,209.9,4.5,5,0,0,1034,1024,1024,1024,209.5,0,99,3.933,3.93,3.922,0,0,0,10.918,85.1,202.679205,110.892392,6,P-GPS,
12000,27-10-20 5:05,13.81217497,99.7173592,111.54856,,,203.335373,0,0,3.263599186,10,4,11.971,203.335373,111.54856,0.223694,3.263599186,0,0,-3.579104,209.9,4.6,5.2,0,0,1027,1024,1024,1024,209.5,0,99,3.933,3.93,3.922,0,0,0,10.918,85.1,203.335373,111.54856,6,P-GPS,
12100,27-10-20 5:05,13.81217497,99.71735909,112.204728,,,203.991541,0,0,3.298851812,10,4,11.971,203.991541,112.204728,0.223694,3.298851812,0,0,-2.684328,209.8,4.7,5.4,0,0,1024,1024,1024,1130,209.5,0,99,3.933,3.93,3.922,0,0,0,10.918,85.1,203.991541,112.204728,6,P-GPS,
12200,27-10-20 5:05,13.81217498,99.71735896,112.860896,,,204.647709,0,0,3.34071533,10,4,11.971,204.647709,112.860896,0.223694,3.34071533,0,0,-1.789552,209.8,5,5.6,0,0,1024,1024,1024,1323,209.6,0,99,3.933,3.93,3.922,0,0,0,10.918,85.1,204.647709,112.860896,6,P-GPS,
12300,27-10-20 5:05,13.81217498,99.71735879,113.18898,,,204.975793,0,0,3.393930555,10,4,12.187,204.975793,113.18898,0.223694,3.393930555,0,0,-1.11847,209.9,5.3,5.5,0,0,1024,1024,1058,1444,211,0,98,4.048,4.047,4.044,0,0,0,6.446,85.28,204.975793,113.18898,6,P-GPS,
12400,27-10-20 5:05,13.81217501,99.71735861,113.517064,,,205.303877,0,0,3.452854441,10,4,12.187,205.303877,113.517064,0.223694,3.452854441,0,0,-0.671082,210.3,5.3,5.2,0,0,1024,1024,1091,1492,213.6,0,98,4.048,4.047,4.044,0,0,0,6.446,85.28,205.303877,113.517064,6,P-GPS,
12500,27-10-20 5:05,13.8121751,99.71735849,113.845148,,,205.631961,0,0,3.506332133,10,4,12.187,205.631961,113.845148,0.223694,3.506332133,0,0,-0.447388,211.7,4.9,5.4,0,0,1024,1024,1109,1497,217.6,0,98,4.048,4.047,4.044,0,0,0,6.446,85.28,205.631961,113.845148,6,P-GPS,
12600,27-10-20 5:05,13.81217521,99.71735835,113.845148,,,205.631961,0,0,3.568963369,10,4,12.187,205.631961,113.845148,0.223694,3.568963369,0,0,-0.223694,214.1,4.6,5.5,0,0,1024,1024,1124,1520,222,0,98,4.048,4.047,4.044,0,0,0,6.446,85.28,205.631961,113.845148,6,P-GPS,
12700,27-10-20 5:05,13.81217536,99.71735829,114.173232,,,205.960045,0,0,3.612631349,10,4,12.187,205.960045,114.173232,0.223694,3.612631349,0,0,-0.223694,218,4.2,5.7,0,0,1024,1024,1130,1520,226.8,0,98,4.048,4.047,4.044,0,0,0,6.446,85.28,205.960045,114.173232,6,P-GPS,
12800,27-10-20 5:05,13.81217552,99.7173582,114.501316,,,206.288129,0,0,3.671784894,10,4,12.187,206.288129,114.501316,0.223694,3.671784894,0,0,-0.223694,222.4,3.6,6.2,0,0,1024,1024,1146,1531,231.8,0,98,4.048,4.047,4.044,0,0,0,6.446,85.28,206.288129,114.501316,6,P-GPS,
12900,27-10-20 5:05,13.81217572,99.71735804,114.8294,,,206.616213,0,0,3.758858388,10,4,12.187,206.616213,114.8294,0.223694,3.758858388,0,0,-0.223694,227.2,3.3,6.4,0,0,1024,1024,1160,1555,237,0,98,4.048,4.047,4.044,0,0,0,6.446,85.28,206.616213,114.8294,6,P-GPS,
13000,27-10-20 5:05,13.81217595,99.71735787,114.8294,,,206.616213,0,0,3.852690412,10,4,12.187,206.616213,114.8294,0.223694,3.852690412,0,0,0,232.4,2.9,6.3,0,0,1024,1024,1172,1553,242.6,0,98,4.048,4.047,4.044,0,0,0,6.446,85.28,206.616213,114.8294,6,P-GPS,
13100,27-10-20 5:05,13.81217617,99.71735776,115.157484,,,206.944297,0,0,3.928149732,10,4,12.187,206.944297,115.157484,0.223694,3.928149732,0,0,-0.223694,237.5,2,6.2,0,0,1057,1024,1024,1024,248.4,0,98,4.048,4.047,4.044,0,0,0,6.446,85.28,206.944297,115.157484,6,P-GPS,
13200,27-10-20 5:05,13.81217641,99.71735763,115.485568,,,207.272381,0,0,4.014074932,10,4,12.187,207.272381,115.485568,0.223694,4.014074932,0,0,-0.223694,242.6,1.1,5.9,0,0,1425,1024,1024,1024,250.8,0,98,4.048,4.047,4.044,0,0,0,6.446,85.28,207.272381,115.485568,6,P-GPS,
13300,27-10-20 5:05,13.81217665,99.71735764,115.813652,,,207.600465,0,0,4.05738202,10,4,12.079,207.600465,115.813652,0.223694,4.05738202,0,0,-0.671082,247.4,-1.4,4.3,0,0,1684,911,1024,1024,250.8,0,98,4.048,4.047,4.044,0,0,0,6.446,85.28,207.600465,115.813652,6,P-GPS,
13400,27-10-20 5:05,13.81217687,99.71735759,115.813652,,,207.600465,0,0,4.116601182,10,4,12.079,207.600465,115.813652,0.223694,4.116601182,0,0,-0.223694,249.2,-15.4,4,0,0,1684,834,1024,1024,250.8,0,98,4.048,4.047,4.044,0,0,0,6.446,85.28,207.600465,115.813652,6,P-GPS,
13500,27-10-20 5:05,13.81217695,99.71735746,116.141736,,,207.928549,0,0.7158208,4.171259976,10,4,12.079,207.928549,116.141736,0.7158208,4.171259976,-0.223694,-0.671082,-0.223694,249.8,-19.7,2.3,0,0,1684,874,1024,1024,250.8,0,98,4.048,4.047,4.044,0,0,0,6.446,85.28,207.928549,116.141736,6,P-GPS,
13600,27-10-20 5:05,13.81217691,99.71735702,116.46982,,,208.256633,0,1.2079476,4.294389901,10,4,12.079,208.256633,116.46982,1.2079476,4.294389901,-0.447388,-1.11847,0,250.2,-21.9,1.6,0,0,1684,929,1024,1024,250.8,0,98,4.048,4.047,4.044,0,0,0,6.446,85.28,208.256633,116.46982,6,P-GPS,
13700,27-10-20 5:05,13.81217666,99.7173563,116.797904,,,208.584717,0,1.9908766,4.462008017,10,4,12.079,208.584717,116.797904,1.9908766,4.462008017,-0.894776,-1.789552,-0.223694,250.5,-22.3,2,0,0,1684,1024,1024,1024,250.8,0,98,4.048,4.047,4.044,0,0,0,6.446,85.28,208.584717,116.797904,6,P-GPS,
13800,27-10-20 5:05,13.81217627,99.71735526,116.797904,,,208.584717,0,2.9974996,4.720275742,10,4,12.079,208.584717,116.797904,2.9974996,4.720275742,-1.342164,-2.684328,0,250.4,-22.7,2.9,0,0,1684,1024,1024,1024,250.8,0,98,4.048,4.047,4.044,0,0,0,6.446,85.28,208.584717,116.797904,6,P-GPS,
13900,27-10-20 5:05,13.81217568,99.71735379,117.125988,,,208.912801,0,3.7133204,5.106594652,10,4,12.079,208.912801,117.125988,3.7133204,5.106594652,-1.565858,-3.35541,0.223694,250.2,-22.6,3.3,0,0,1684,1024,1024,1024,250.8,0,98,4.048,4.047,4.044,0,0,0,6.446,85.28,208.912801,117.125988,6,P-GPS,
14000,27-10-20 5:05,13.81217499,99.71735205,117.125988,,,208.912801,0,4.4962494,5.603543486,10,4,12.079,208.912801,117.125988,4.4962494,5.603543486,-2.013246,-4.026492,0,250.2,-21.3,3.5,0,0,1684,1024,1024,1024,250.8,0,98,4.048,4.047,4.044,0,0,0,6.446,85.28,208.912801,117.125988,6,P-GPS,
14100,27-10-20 5:05,13.81217417,99.71734991,117.454072,,,209.240885,0,5.2120702,6.260400463,10,4,12.079,209.240885,117.454072,5.2120702,6.260400463,-2.23694,-4.697574,0,250.4,-19.5,3.6,0,0,1684,1024,1024,1024,250.8,0,98,4.048,4.047,4.044,0,0,0,6.446,85.28,209.240885,117.454072,6,P-GPS,
14200,27-10-20 5:05,13.81217327,99.71734758,117.454072,,,209.240885,0,5.704197,7.015551406,10,4,12.079,209.240885,117.454072,5.704197,7.015551406,-2.460634,-5.144962,0,250.8,-18.1,3.8,0,0,1684,1024,1024,1024,250.8,0,98,4.048,4.047,4.044,0,0,0,6.446,85.28,209.240885,117.454072,6,P-GPS,
14300,27-10-20 5:05,13.81217239,99.71734489,117.782156,,,209.568969,0,5.704197,7.923786343,10,4,11.885,209.568969,117.782156,5.704197,7.923786343,-2.460634,-5.816044,0.223694,251,-16.7,3.7,0,0,1684,1024,1024,1024,250.8,0,98,3.99,3.978,4.044,0,0,0,8.46,85.46,209.568969,117.782156,6,P-GPS,
14400,27-10-20 5:05,13.81217142,99.71734208,117.782156,,,209.568969,0,6.822667,8.895932043,10,4,11.885,209.568969,117.782156,6.822667,8.895932043,-2.684328,-6.263432,0.223694,250.8,-15.5,3.6,0,0,1684,1024,1024,1024,250.8,0,98,3.99,3.978,4.044,0,0,0,8.46,85.46,209.568969,117.782156,6,P-GPS,
14500,27-10-20 5:05,13.81217053,99.71733908,117.782156,,,209.568969,0,7.0239916,9.950853337,10,4,11.885,209.568969,117.782156,7.0239916,9.950853337,-2.684328,-6.487126,0.671082,250.8,-15.1,3.4,0,0,1684,1024,1024,1024,250.8,0,98,3.99,3.978,4.044,0,0,0,8.46,85.46,209.568969,117.782156,6,P-GPS,
14600,27-10-20 5:05,13.81216953,99.71733597,117.454072,,,209.240885,0,7.5161184,11.05872739,10,4,11.885,209.568969,117.782156,7.5161184,11.05872739,-2.908022,-6.934514,0.894776,251,-14.9,3.1,0,0,1684,1024,1024,1024,250.8,0,98,3.99,3.978,4.044,0,0,0,8.46,85.46,209.240885,117.454072,6,P-GPS,
14700,27-10-20 5:05,13.81216862,99.71733259,117.454072,,,209.240885,0,7.941137,12.26886522,10,4,11.885,209.568969,117.782156,7.941137,12.26886522,-2.908022,-7.381902,0.671082,250.9,-14.5,2.8,0,0,1684,1024,1024,1024,250.8,0,98,3.99,3.978,4.044,0,0,0,8.46,85.46,209.240885,117.454072,6,P-GPS,
14800,27-10-20 5:05,13.81216758,99.71732912,117.454072,,,209.240885,0,8.4332638,13.52342563,10,4,11.885,209.568969,117.782156,8.4332638,13.52342563,-3.131716,-7.82929,0.894776,250.7,-14.6,2.8,0,0,1684,1024,1024,1024,250.8,0,98,3.99,3.978,4.044,0,0,0,8.46,85.46,209.240885,117.454072,6,P-GPS,
14900,27-10-20 5:05,13.81216658,99.7173254,117.454072,,,209.240885,0,8.6345884,14.86604378,10,4,11.885,209.568969,117.782156,8.6345884,14.86604378,-3.131716,-8.052984,0.894776,250.6,-14.7,2.8,0,0,1684,1024,1024,1024,250.8,0,98,3.99,3.978,4.044,0,0,0,8.46,85.46,209.240885,117.454072,6,P-GPS,
15000,27-10-20 5:05,13.81216545,99.7173216,117.125988,,,208.912801,0,9.1490846,16.25045984,10,4,11.885,209.568969,117.782156,9.1490846,16.25045984,-3.35541,-8.500372,0.894776,251,-14.7,2.8,0,0,1684,1024,1024,848,250.8,0,98,3.99,3.978,4.044,0,0,0,8.46,85.46,208.912801,117.125988,6,P-GPS,
15100,27-10-20 5:05,13.81216428,99.71731763,117.125988,,,208.912801,0,9.4398868,17.69639164,10,4,11.885,209.568969,117.782156,9.4398868,17.69639164,-3.579104,-8.724066,1.11847,250.6,-14.8,3.1,0,0,1684,1024,1024,780,250.4,0,98,3.99,3.978,4.044,0,0,0,8.46,85.46,208.912801,117.125988,6,P-GPS,
15200,27-10-20 5:05,13.81216299,99.71731356,116.797904,,,208.584717,0,9.842536,19.18763185,10,4,11.885,209.568969,117.782156,9.842536,19.18763185,-3.579104,-9.171454,0.671082,250.6,-14.8,2.8,0,0,1684,1024,1024,726,249.3,0,98,3.99,3.978,4.044,0,0,0,8.46,85.46,208.584717,116.797904,6,P-GPS,
15300,27-10-20 5:05,13.81216164,99.71730919,116.797904,,,208.584717,0,10.3346628,20.79222507,10,4,11.928,209.568969,117.782156,10.3346628,20.79222507,-3.802798,-9.618842,0.671082,250.2,-14.9,3,0,0,1684,1024,1024,716,247.8,0,98,3.985,3.979,3.976,0,0,0,7.89,85.64,208.584717,116.797904,6,P-GPS,
15400,27-10-20 5:05,13.81216019,99.71730475,116.797904,,,208.584717,0,10.625465,22.42959389,10,4,11.928,209.568969,117.782156,10.625465,22.42959389,-4.026492,-9.842536,0.894776,249.2,-15,3.4,0,0,1684,1024,1024,828,246,0,98,3.985,3.979,3.976,0,0,0,7.89,85.64,208.584717,116.797904,6,P-GPS,
15500,27-10-20 5:05,13.81215866,99.7173,116.46982,,,208.256633,0,11.0504836,24.18559789,10,4,11.928,209.568969,117.782156,11.0504836,24.18559789,-4.026492,-10.289924,0.894776,247.6,-14.9,3.7,0,0,1684,1024,1024,1024,245,0,98,3.985,3.979,3.976,0,0,0,7.89,85.64,208.256633,116.46982,6,P-GPS,
15600,27-10-20 5:05,13.81215705,99.71729521,116.46982,,,208.256633,0,11.5426104,25.96250083,10,4,11.928,209.568969,117.782156,11.5426104,25.96250083,-4.250186,-10.737312,1.11847,246.1,-14.9,3.5,0,0,1684,1024,1024,1024,244.9,0,98,3.985,3.979,3.976,0,0,0,7.89,85.64,208.256633,116.46982,6,P-GPS,
15700,27-10-20 5:05,13.81215534,99.71729,116.141736,,,207.928549,0,12.0571066,27.89186441,10,4,11.928,209.568969,117.782156,12.0571066,27.89186441,-4.47388,-11.1847,0.671082,245.4,-14.8,3.5,0,0,1684,1024,1024,1024,245,0,98,3.985,3.979,3.976,0,0,0,7.89,85.64,207.928549,116.141736,6,P-GPS,
15800,27-10-20 5:05,13.81215357,99.71728481,116.141736,,,207.928549,0,12.2584312,29.82552589,10,4,11.928,209.568969,117.782156,12.2584312,29.82552589,-4.47388,-11.408394,0.671082,245,-14.8,3.4,0,0,1684,1024,1024,1024,244.9,0,98,3.985,3.979,3.976,0,0,0,7.89,85.64,207.928549,116.141736,6,P-GPS,
15900,27-10-20 5:05,13.81215162,99.71727908,116.141736,,,207.928549,0,12.750558,31.95925299,10,4,11.928,209.568969,117.782156,12.750558,31.95925299,-4.697574,-11.855782,0.223694,244.8,-15.3,3.4,0,0,1684,1024,1024,1024,244.9,0,98,3.985,3.979,3.976,0,0,0,7.89,85.64,207.928549,116.141736,6,P-GPS,
16000,27-10-20 5:05,13.81214963,99.71727343,116.141736,,,207.928549,0,13.2426848,34.07217957,10,4,11.928,209.568969,117.782156,13.2426848,34.07217957,-4.921268,-12.30317,0.223694,244.9,-15.4,3.3,0,0,1684,1024,1024,1024,244.9,0,98,3.985,3.979,3.976,0,0,0,7.89,85.64,207.928549,116.141736,6,P-GPS,
16100,27-10-20 5:05,13.81214739,99.71726726,115.813652,,,207.600465,0,13.757181,36.38582794,10,4,11.928,209.568969,117.782156,13.757181,36.38582794,-5.144962,-12.750558,0.447388,244.6,-15.3,3.5,0,0,1684,1024,1024,1024,244.9,0,98,3.985,3.979,3.976,0,0,0,7.89,85.64,207.600465,115.813652,6,P-GPS,
16200,27-10-20 5:05,13.81214514,99.71726122,115.813652,,,207.600465,0,14.0479832,38.65912197,10,4,11.928,209.568969,117.782156,14.0479832,38.65912197,-5.368656,-12.974252,0,244.6,-14.9,3.5,0,0,1684,1024,1024,1024,244.9,0,98,3.985,3.979,3.976,0,0,0,7.89,85.64,207.600465,115.813652,6,P-GPS,
16300,27-10-20 5:05,13.81214267,99.71725468,115.813652,,,207.600465,0,14.54011,41.12467323,10,4,12.058,209.568969,117.782156,14.54011,41.12467323,-5.59235,-13.42164,0.447388,244.6,-15,3.5,0,0,1684,1024,1024,1024,244.9,0,98,3.985,3.979,3.976,0,0,0,8.872,85.64,207.600465,115.813652,6,P-GPS,
16400,27-10-20 5:05,13.81214022,99.7172483,115.813652,,,207.600465,0,14.54011,43.53969956,10,4,12.058,209.568969,117.782156,14.54011,43.53969956,-5.816044,-13.869028,0,244.8,-14.9,3.5,0,0,1684,1024,1024,1024,244.9,0,98,3.985,3.979,3.976,0,0,0,8.872,85.64,207.600465,115.813652,6,P-GPS,
16500,27-10-20 5:05,13.81213752,99.71724133,115.813652,,,207.600465,0,15.323039,46.17880725,10,4,12.058,209.568969,117.782156,15.323039,46.17880725,-6.039738,-14.092722,0.223694,244.8,-15,3.7,0,0,1684,1024,1024,978,245,0,98,3.985,3.979,3.976,0,0,0,8.872,85.64,207.600465,115.813652,6,P-GPS,
16600,27-10-20 5:05,13.81213487,99.71723456,115.485568,,,207.272381,0,15.8375352,48.74803306,10,4,12.058,209.568969,117.782156,15.8375352,48.74803306,-6.263432,-14.54011,0.447388,244.8,-14.6,3.7,0,0,1684,1024,1024,840,244.9,0,98,3.985,3.979,3.976,0,0,0,8.872,85.64,207.272381,115.485568,6,P-GPS,
16700,27-10-20 5:05,13.81213197,99.7172272,115.485568,,,207.272381,0,16.2401844,51.54166832,10,4,12.058,209.568969,117.782156,16.2401844,51.54166832,-6.263432,-14.987498,0.447388,244.8,-14.3,3.7,0,0,1684,1024,1024,838,244.5,0,98,3.985,3.979,3.976,0,0,0,8.872,85.64,207.272381,115.485568,6,P-GPS,
16800,27-10-20 5:05,13.81212914,99.71722007,115.485568,,,207.272381,0,16.5309866,54.25590725,10,4,12.058,209.568969,117.782156,16.5309866,54.25590725,-6.487126,-15.211192,0,244.6,-14.5,3.7,0,0,1684,1024,1024,837,243.8,0,98,3.985,3.979,3.976,0,0,0,8.872,85.64,207.272381,115.485568,6,P-GPS,
16900,27-10-20 5:05,13.81212609,99.71721238,115.485568,,,207.272381,0,17.0454828,57.18208844,10,4,12.058,209.568969,117.782156,17.0454828,57.18208844,-6.71082,-15.65858,0,244.2,-14.9,3.6,0,0,1684,1024,1024,790,243.1,0,98,3.985,3.979,3.976,0,0,0,8.872,85.64,207.272381,115.485568,6,P-GPS,
17000,27-10-20 5:05,13.81212311,99.71720493,115.485568,,,207.272381,0,17.336285,60.02231163,10,4,12.058,209.568969,117.782156,17.336285,60.02231163,-6.934514,-15.882274,0,243.6,-15.1,3.7,0,0,1684,1024,1024,741,242.2,0,98,3.985,3.979,3.976,0,0,0,8.872,85.64,207.272381,115.485568,6,P-GPS,
17100,27-10-20 5:05,13.81211988,99.71719679,115.485568,,,207.272381,0,17.7389342,63.12434585,10,4,12.058,209.568969,117.782156,17.7389342,63.12434585,-6.934514,-16.329662,0,242.9,-15,4,0,0,1684,1024,1024,727,240.8,0,98,3.985,3.979,3.976,0,0,0,8.872,85.64,207.272381,115.485568,6,P-GPS,
17200,27-10-20 5:05,13.81211671,99.71718894,115.485568,,,207.272381,0,18.231061,66.1233617,10,4,12.058,209.568969,117.782156,18.231061,66.1233617,-7.158208,-16.77705,0,241.9,-15,3.8,0,0,1684,1024,1024,720,239.1,0,98,3.985,3.979,3.976,0,0,0,8.872,85.64,207.272381,115.485568,6,P-GPS,
17300,27-10-20 5:05,13.81211326,99.71718048,115.485568,,,207.272381,0,18.5442326,69.36056652,10,4,11.82,209.568969,117.782156,18.5442326,69.36056652,-7.381902,-17.000744,0,240.3,-14.8,4,0,0,1684,1024,1024,714,237.2,0,98,3.97,3.963,3.956,0,0,0,8.872,85.64,207.272381,115.485568,6,P-GPS,
17400,27-10-20 5:05,13.8121099,99.71717232,115.157484,,,206.944297,0,19.0363594,72.48523854,10,4,11.82,209.568969,117.782156,19.0363594,72.48523854,-7.605596,-17.448132,0,238.8,-14.5,3.7,0,0,1684,1024,1024,718,235.3,0,98,3.97,3.963,3.956,0,0,0,8.872,85.64,206.944297,115.157484,6,P-GPS,
17500,27-10-20 5:05,13.81210622,99.71716365,115.157484,,,206.944297,0,19.3271616,75.82382132,10,4,11.82,209.568969,117.782156,19.3271616,75.82382132,-7.82929,-17.671826,0,237,-14.1,3.3,0,0,1684,1024,1024,718,233.5,0,98,3.97,3.963,3.956,0,0,0,8.872,85.64,206.944297,115.157484,6,P-GPS,
17600,27-10-20 5:05,13.81210263,99.71715529,115.157484,,,206.944297,0,19.6179638,79.0456062,10,4,11.82,209.568969,117.782156,19.6179638,79.0456062,-8.052984,-17.89552,0.223694,235.5,-13.7,3.1,0,0,1684,1024,1024,726,231.6,0,98,3.97,3.963,3.956,0,0,0,8.872,85.64,206.944297,115.157484,6,P-GPS,
17700,27-10-20 5:05,13.8120987,99.71714625,115.485568,,,207.272381,0,19.9311354,82.53674805,10,4,11.82,209.568969,117.782156,19.9311354,82.53674805,-8.276678,-18.119214,-0.223694,233.6,-13.4,3.2,0,0,1684,1024,1024,747,229.9,0,98,3.97,3.963,3.956,0,0,0,8.872,85.64,207.272381,115.485568,6,P-GPS,
17800,27-10-20 5:05,13.81209487,99.71713758,115.157484,,,206.944297,0,20.3114152,85.89173503,10,4,11.82,209.568969,117.782156,20.3114152,85.89173503,-8.724066,-18.342908,0.223694,231.6,-12.8,3.1,0,0,1684,1024,1024,759,228.3,0,98,3.97,3.963,3.956,0,0,0,8.872,85.64,206.944297,115.157484,6,P-GPS,
17900,27-10-20 5:05,13.81209066,99.71712837,115.157484,,,206.944297,0,20.6022174,89.47966166,10,4,11.82,209.568969,117.782156,20.6022174,89.47966166,-8.94776,-18.566602,0,229.9,-12.2,2.4,0,0,1684,1024,1024,766,226.9,0,98,3.97,3.963,3.956,0,0,0,8.872,85.64,206.944297,115.157484,6,P-GPS,
18000,27-10-20 5:05,13.81208657,99.71711956,115.157484,,,206.944297,0,20.915389,92.91666964,10,4,11.82,209.568969,117.782156,20.915389,92.91666964,-9.171454,-18.790296,-0.223694,228.2,-11.9,1.9,0,0,1684,1024,1024,766,225.6,0,98,3.97,3.963,3.956,0,0,0,8.872,85.64,206.944297,115.157484,6,P-GPS,
18100,27-10-20 5:05,13.81208211,99.71711021,115.485568,,,207.272381,0,21.0048666,96.5797275,10,4,11.82,209.568969,117.782156,21.0048666,96.5797275,-9.395148,-18.790296,-0.223694,227,-12,1.5,0,0,1684,1024,1024,764,224.3,0,98,3.97,3.963,3.956,0,0,0,8.872,85.64,207.272381,115.485568,6,P-GPS,
18200,27-10-20 5:05,13.81207778,99.71710131,115.485568,,,207.272381,0,21.4075158,100.081368,10,4,11.82,209.568969,117.782156,21.4075158,100.081368,-9.842536,-19.01399,0,225.7,-11.5,1.3,0,0,1684,1024,1024,762,223,0,98,3.97,3.963,3.956,0,0,0,8.872,85.64,207.272381,115.485568,6,P-GPS,
18300,27-10-20 5:05,13.81207301,99.71709181,115.485568,,,207.272381,0,21.4075158,103.8379298,10,4,11.95,209.568969,117.782156,21.4075158,103.8379298,-10.06623,-19.01399,0,224.3,-11.2,1.2,0,0,1684,1024,1024,760,221.6,0,98,3.958,3.952,3.946,0,0,0,9.366,85.82,207.272381,115.485568,6,P-GPS,
18400,27-10-20 5:05,13.81206839,99.71708279,115.485568,,,207.272381,0,21.810165,107.4192948,10,4,11.95,209.568969,117.782156,21.810165,107.4192948,-10.289924,-19.237684,-0.223694,223,-10.7,0.7,0,0,1684,1024,1024,760,220.3,0,98,3.958,3.952,3.946,0,0,0,9.366,85.82,207.272381,115.485568,6,P-GPS,
18500,27-10-20 5:05,13.81206335,99.7170732,115.485568,,,207.272381,0,22.033859,111.2470508,10,4,11.95,209.568969,117.782156,22.033859,111.2470508,-10.737312,-19.237684,0,221.4,-10.5,-0.1,0,0,1684,1024,1024,760,218.9,0,98,3.958,3.952,3.946,0,0,0,9.366,85.82,207.272381,115.485568,6,P-GPS,
18600,27-10-20 5:05,13.81205844,99.71706412,115.157484,,,206.944297,0,22.257553,114.8887832,10,4,11.95,209.568969,117.782156,22.257553,114.8887832,-11.1847,-19.237684,0.223694,220.2,-9.8,-0.4,0,0,1684,1024,1024,759,217.6,0,98,3.958,3.952,3.946,0,0,0,9.366,85.82,206.944297,115.157484,6,P-GPS,
18700,27-10-20 5:05,13.81205305,99.71705452,115.157484,,,206.944297,0,22.3694,118.7690327,10,4,11.95,209.568969,117.782156,22.3694,118.7690327,-11.408394,-19.237684,0,219.1,-9.7,-0.8,0,0,1684,1024,1024,760,216.2,0,98,3.958,3.952,3.946,0,0,0,9.366,85.82,206.944297,115.157484,6,P-GPS,
18800,27-10-20 5:05,13.81204783,99.71704545,115.157484,,,206.944297,0,22.593094,122.4544002,10,4,11.95,209.568969,117.782156,22.593094,122.4544002,-11.855782,-19.237684,0,217.8,-9.4,-0.8,0,0,1684,1024,1024,761,214.8,0,98,3.958,3.952,3.946,0,0,0,9.366,85.82,206.944297,115.157484,6,P-GPS,
18900,27-10-20 5:05,13.81204208,99.71703582,115.157484,,,206.944297,0,22.5259858,126.3963295,10,4,11.95,209.568969,117.782156,22.593094,126.3963295,-12.079476,-19.01399,0,216.1,-9.2,-1.3,0,0,1684,1024,1024,1024,213.5,0,98,3.958,3.952,3.946,0,0,0,9.366,85.82,206.944297,115.157484,6,P-GPS,
19000,27-10-20 5:05,13.81203653,99.71702677,115.157484,,,206.944297,0,22.7720492,130.1292693,10,4,11.95,209.568969,117.782156,22.7720492,130.1292693,-12.526864,-19.01399,0,214.8,-8.8,-1.9,0,0,1684,1024,1024,1024,213.3,0,98,3.958,3.952,3.946,0,0,0,9.366,85.82,206.944297,115.157484,6,P-GPS,
19100,27-10-20 5:05,13.81203045,99.71701723,115.157484,,,206.944297,0,22.704941,134.0974452,10,4,11.95,209.568969,117.782156,22.7720492,134.0974452,-12.750558,-18.790296,0,213.7,-8.5,-2.2,0,0,1684,1024,1024,1024,213.3,0,98,3.958,3.952,3.946,0,0,0,9.366,85.82,206.944297,115.157484,6,P-GPS,
19200,27-10-20 5:05,13.81202458,99.71700828,115.157484,,,206.944297,0,22.9510044,137.8484296,10,4,11.95,209.568969,117.782156,22.9510044,137.8484296,-13.197946,-18.790296,0,213.4,-8.3,-2.5,0,0,1684,1024,1024,1024,213.3,0,98,3.958,3.952,3.946,0,0,0,9.366,85.82,206.944297,115.157484,6,P-GPS,
19300,27-10-20 5:05,13.81201827,99.71699902,115.157484,,,206.944297,0,22.9062656,141.7627998,10,4,12.101,209.568969,117.782156,22.9510044,141.7627998,-13.42164,-18.566602,0,213.5,-7.9,-2.6,0,0,1684,1024,1024,1024,213.3,0,98,3.971,3.965,3.958,0,0,0,8.402,86,206.944297,115.157484,6,P-GPS,
19400,27-10-20 5:05,13.81201215,99.71699027,115.157484,,,206.944297,0,23.1746984,145.4931149,10,4,12.101,209.568969,117.782156,23.1746984,145.4931149,-13.869028,-18.566602,0,213.6,-7.8,-2.6,0,0,1684,1024,1024,1024,213.3,0,98,3.971,3.965,3.958,0,0,0,8.402,86,206.944297,115.157484,6,P-GPS,
19500,27-10-20 5:05,13.81200544,99.71698106,115.485568,,,207.272381,0,23.1299596,149.4652279,10,4,12.101,209.568969,117.782156,23.1746984,149.4652279,-14.092722,-18.342908,0,213.5,-7.8,-2.6,0,0,1684,1024,1024,1024,213.3,0,98,3.971,3.965,3.958,0,0,0,8.402,86,207.272381,115.485568,6,P-GPS,
19600,27-10-20 5:05,13.81199898,99.71697238,115.485568,,,207.272381,0,23.3983924,153.2306479,10,4,12.101,209.568969,117.782156,23.3983924,153.2306479,-14.54011,-18.342908,0,213.6,-7.2,-2.6,0,0,1684,1024,1024,1024,213.3,0,98,3.971,3.965,3.958,0,0,0,8.402,86,207.272381,115.485568,6,P-GPS,
19700,27-10-20 5:05,13.81199194,99.71696322,115.157484,,,206.944297,0,23.376023,157.2457399,10,4,12.101,209.568969,117.782156,23.3983924,157.2457399,-14.763804,-18.119214,0.223694,213.5,-6.7,-2.4,0,0,1684,1024,1024,1024,213.3,0,98,3.971,3.965,3.958,0,0,0,8.402,86,206.944297,115.157484,6,P-GPS,
19800,27-10-20 5:05,13.81198517,99.71695463,115.157484,,,206.944297,0,23.5102394,161.042328,10,4,12.101,209.568969,117.782156,23.5102394,161.042328,-14.987498,-18.119214,0,213.7,-6.7,-2.5,0,0,1684,1024,1024,1024,213.3,0,98,3.971,3.965,3.958,0,0,0,8.402,86,206.944297,115.157484,6,P-GPS,
19900,27-10-20 5:05,13.81197783,99.71694562,115.157484,,,206.944297,0,23.6220864,165.0669344,10,4,12.101,209.568969,117.782156,23.6220864,165.0669344,-15.434886,-17.89552,0,213.9,-6.7,-2.7,0,0,1684,1024,1024,1024,213.3,0,98,3.971,3.965,3.958,0,0,0,8.402,86,206.944297,115.157484,6,P-GPS,
20000,27-10-20 5:05,13.81197079,99.71693716,115.157484,,,206.944297,0,23.7786722,168.8763177,10,4,12.101,209.568969,117.782156,23.7786722,168.8763177,-15.65858,-17.89552,0,213.6,-6.4,-2.9,0,0,1684,1024,1024,1024,213.3,0,98,3.971,3.965,3.958,0,0,0,8.402,86,206.944297,115.157484,6,P-GPS,
20100,27-10-20 5:05,13.81196316,99.71692827,115.485568,,,207.272381,0,23.7563028,172.9232339,10,4,12.101,209.568969,117.782156,23.7786722,172.9232339,-15.882274,-17.671826,-0.223694,213.6,-6,-3.2,0,0,1684,1024,1024,1024,213.3,0,98,3.971,3.965,3.958,0,0,0,8.402,86,207.272381,115.485568,6,P-GPS,
20200,27-10-20 5:05,13.81195585,99.71691993,115.157484,,,206.944297,0,23.7563028,176.7496776,10,4,12.101,209.568969,117.782156,23.7786722,176.7496776,-16.329662,-17.671826,0.223694,213.8,-5.6,-3.2,0,0,1684,1024,1024,1024,213.3,0,98,3.971,3.965,3.958,0,0,0,8.402,86,206.944297,115.157484,6,P-GPS,
20300,27-10-20 5:05,13.81194796,99.71691125,115.157484,,,206.944297,0,24.047105,180.7870793,10,4,11.95,209.568969,117.782156,24.047105,180.7870793,-16.553356,-17.448132,-0.223694,213.8,-5.3,-3.2,0,0,1684,1024,1024,1024,213.3,0,98,3.971,3.965,3.958,0,0,0,8.402,86,206.944297,115.157484,6,P-GPS,
20400,27-10-20 5:05,13.81194041,99.71690311,115.157484,,,206.944297,0,24.047105,184.6049928,10,4,11.95,209.568969,117.782156,24.047105,184.6049928,-16.77705,-17.224438,0,213.7,-5.2,-3,0,0,1684,1024,1024,1024,213.3,0,98,3.971,3.965,3.958,0,0,0,8.402,86,206.944297,115.157484,6,P-GPS,
20500,27-10-20 5:05,13.81193225,99.71689467,115.157484,,,206.944297,0,24.047105,188.624678,10,4,11.95,209.568969,117.782156,24.047105,188.624678,-17.000744,-17.000744,0.223694,213.6,-5,-3,0,0,1684,1024,1024,1024,213.3,0,98,3.971,3.965,3.958,0,0,0,8.402,86,206.944297,115.157484,6,P-GPS,
20600,27-10-20 5:05,13.81192447,99.71688674,114.8294,,,206.616213,0,24.047105,192.4320928,10,4,11.95,209.568969,117.782156,24.047105,192.4320928,-17.224438,-16.77705,0.223694,213.7,-4.4,-2.9,0,0,1684,1024,1024,1024,213.3,0,98,3.971,3.965,3.958,0,0,0,8.402,86,206.616213,114.8294,6,P-GPS,
20700,27-10-20 5:05,13.81191593,99.71687836,114.501316,,,206.288129,0,24.047105,196.5141139,10,4,11.95,209.568969,117.782156,24.047105,196.5141139,-17.448132,-16.553356,0,213.7,-4.2,-2.6,0,0,1684,1024,1024,1024,213.3,0,98,3.971,3.965,3.958,0,0,0,8.402,86,206.288129,114.501316,6,P-GPS,
20800,27-10-20 5:05,13.81190786,99.71687055,114.8294,,,206.616213,0,24.0694744,200.3487597,10,4,11.95,209.568969,117.782156,24.0694744,200.3487597,-17.671826,-16.329662,-0.223694,213.6,-4.5,-2.6,0,0,1684,1024,1024,1024,213.3,0,98,3.971,3.965,3.958,0,0,0,8.402,86,206.616213,114.8294,6,P-GPS,
20900,27-10-20 5:05,13.81189917,99.71686262,114.8294,,,206.616213,0,24.0694744,204.3372769,10,4,11.95,209.568969,117.782156,24.0694744,204.3372769,-17.89552,-16.105968,0,213.5,-4.5,-2.4,0,0,1684,1024,1024,1024,213.3,0,98,3.971,3.965,3.958,0,0,0,8.402,86,206.616213,114.8294,6,P-GPS,
21000,27-10-20 5:05,13.81189091,99.71685514,114.501316,,,206.288129,0,24.0918438,208.1197573,10,4,11.95,209.568969,117.782156,24.0918438,208.1197573,-18.119214,-15.882274,0,213.4,-4.3,-2.3,0,0,1684,1024,1024,1024,213.3,0,98,3.971,3.965,3.958,0,0,0,8.402,86,206.288129,114.501316,6,P-GPS,
21100,27-10-20 5:05,13.81188224,99.71684774,114.8294,,,206.616213,0,24.1142132,211.9596525,10,4,11.95,209.568969,117.782156,24.1142132,211.9596525,-18.342908,-15.65858,-0.447388,213.4,-4.2,-2,0,0,1684,1024,1024,1024,213.3,0,98,3.971,3.965,3.958,0,0,0,8.402,86,206.616213,114.8294,6,P-GPS,
21200,27-10-20 5:05,13.81187393,99.71684067,114.8294,,,206.616213,0,23.9799968,215.6460043,10,4,11.95,209.568969,117.782156,24.1142132,215.6460043,-18.342908,-15.434886,-0.223694,213.5,-4.5,-1.7,0,0,1684,1024,1024,1024,213.3,0,98,3.971,3.965,3.958,0,0,0,8.402,86,206.616213,114.8294,6,P-GPS,
21300,27-10-20 5:05,13.81186501,99.71683347,114.8294,,,206.616213,0,24.1365826,219.4885241,11,4,11.907,209.568969,117.782156,24.1365826,219.4885241,-18.566602,-15.434886,-0.223694,213.6,-4.3,-1.5,0,0,1684,1024,1024,1024,213.3,0,98,3.981,3.977,3.971,0,0,0,8.022,86,206.616213,114.8294,6,P-GPS,
21400,27-10-20 5:05,13.81185652,99.71682659,114.8294,,,206.616213,0,24.1813214,223.1679861,11,4,11.907,209.568969,117.782156,24.1813214,223.1679861,-18.790296,-15.211192,0,213.4,-4.1,-1.4,0,0,1684,1024,1024,1024,213.3,0,98,3.981,3.977,3.971,0,0,0,8.022,86,206.616213,114.8294,6,P-GPS,
21500,27-10-20 5:05,13.81184739,99.71681969,114.8294,,,206.616213,0,24.2036908,226.9813065,11,4,11.907,209.568969,117.782156,24.2036908,226.9813065,-19.01399,-14.987498,0,213.5,-3.8,-1.2,0,0,1684,1024,1024,1024,213.3,-1.3,98,3.981,3.977,3.971,0,0,0,8.022,86,206.616213,114.8294,6,P-GPS,
