time(millisecond),datetime(utc),latitude,longitude,height_above_takeoff(feet),height_above_ground_at_drone_location(feet),ground_elevation_at_drone_location(feet),altitude_above_seaLevel(feet),height_sonar(feet),speed(mph),distance(feet),satellites,gpslevel,voltage(v),max_altitude(feet),max_ascent(feet),max_speed(mph),max_distance(feet), xSpeed(mph), ySpeed(mph), zSpeed(mph), compass_heading(degrees), pitch(degrees), roll(degrees),isPhoto,isVideo,rc_elevator,rc_aileron,rc_throttle,rc_rudder,gimbal_heading(degrees),gimbal_pitch(degrees),battery_percent,voltageCell1,voltageCell2,voltageCell3,voltageCell4,voltageCell5,voltageCell6,current(A),battery_temperature(f),altitude(feet),ascent(feet),flycStateRaw,flycState,message
0,2020-10-27 05:05:33,13.8121704795273,99.7173671683762,0,Available with any HD 360 subscription,Available with any HD 360 subscription,91.786812976548,0.656168,0,0,10,4,0,91.786812976548,0,0,0,0,0,0,166.2, 3.1, 1.1,0,0,364,1684,364,364,162.5,0,99,4.206,4.157,4.165,0,0,0,0,84.74,91.786812976548,0,6,P-GPS,
100,2020-10-27 05:05:33,13.8121704721862,99.7173670855414,0,,,91.786812976548,0.656168,0,0.0294702765336,10,4,0,91.786812976548,0,0,0.0294702765336,0,0,0,166.2, 3, 1.1,0,0,364,1684,364,364,162.5,0,99,4.206,4.157,4.165,0,0,0,0,84.74,91.786812976548,0,41,Motors_Started,
200,2020-10-27 05:05:33,13.8121704515897,99.7173670063997,0,,,91.786812976548,0.656168,0,0.058286419188,10,4,0,91.786812976548,0,0,0.058286419188,0,0,0,166.2, 3, 1.1,0,0,364,1684,364,364,162.5,0,99,4.206,4.157,4.165,0,0,0,0,84.74,91.786812976548,0,41,Motors_Started,
300,2020-10-27 05:05:33,13.8121704272363,99.7173669451061,0,,,91.786812976548,0.656168,0,0.081372706016,10,4,0,91.786812976548,0,0,0.081372706016,0,0,0,166.2, 3.1, 1.1,0,0,364,1684,364,364,162.5,0,99,4.206,4.157,4.165,0,0,0,0,84.74,91.786812976548,0,41,Motors_Started,
400,2020-10-27 05:05:34,13.812170396646,99.7173668808472,0,,,91.786812976548,0.656168,0,0.10626476718,10,4,0,91.786812976548,0,0,0.10626476718,0,0,0,166.2, 3.1, 1.1,0,0,364,1684,364,364,162.5,0,99,4.206,4.157,4.165,0,0,0,0,84.74,91.786812976548,0,41,Motors_Started,
500,2020-10-27 05:05:34,13.8121703592748,99.7173667903261,0,,,91.786812976548,0.656168,0,0.140945542568,10,4,0,91.786812976548,0,0,0.140945542568,0,0,0,165.9, 3, 1.1,0,0,399,1684,1024,963,162.5,0,99,4.206,4.157,4.165,0,0,0,0,84.74,91.786812976548,0,41,Motors_Started,
600,2020-10-27 05:05:34,13.8121703140106,99.7173667104632,0,,,91.786812976548,0.656168,0,0.173112866432,10,4,0,91.786812976548,0,0,0.173112866432,0,0,0,165, 3, 1.1,0,0,1024,1024,1024,1024,163.8,0,99,4.206,4.157,4.165,0,0,0,0,84.74,91.786812976548,0,41,Motors_Started,
700,2020-10-27 05:05:34,13.8121703011426,99.717366653412,0,,,91.786812976548,0.656168,0,0.19371227654,10,4,0,91.786812976548,0,0,0.19371227654,0,0,0,164.9, 3.1, 1,0,0,1024,1024,1024,1024,164.1,0,99,4.206,4.157,4.165,0,0,0,0,84.74,91.786812976548,0,41,Motors_Started,
800,2020-10-27 05:05:34,13.8121702829838,99.7173665842315,0,,,91.786812976548,0.656168,0,0.219032815408,10,4,0,91.786812976548,0,0,0.219032815408,0,0,0,164.8, 3.1, 1.1,0,0,1024,1024,1024,1024,164.2,0,99,4.206,4.157,4.165,0,0,0,0,84.74,91.786812976548,0,41,Motors_Started,Setting new Return-To-Home altitude to 35m (115 ft). Data Recorder File Index is 169. Setting new Maximum Flight Altitude to 450m (1476 ft)
900,2020-10-27 05:05:34,13.8121702583634,99.717366494715,0,,,91.786812976548,0.656168,0,0.25194882696,10,4,0,91.786812976548,0,0,0.25194882696,0,0,0,164.7, 3, 1.1,0,0,1024,1024,1024,1024,164.3,0,99,4.206,4.157,4.165,0,0,0,0,84.74,91.786812976548,0,41,Motors_Started,
1000,2020-10-27 05:05:34,13.8121702293445,99.7173664115052,0,,,91.786812976548,0.656168,0,0.283268381768,10,4,0,91.786812976548,0,0,0.283268381768,0,0,0,164.4, 3, 1.2,0,0,1024,1024,1024,1024,164.3,0,99,4.206,4.157,4.165,0,0,0,0,84.74,91.786812976548,0,41,Motors_Started,
1100,2020-10-27 05:05:34,13.812170189459,99.7173663472309,0,,,91.786812976548,0.656168,0,0.309582358988,10,4,0,91.786812976548,0,0,0.309582358988,0,0,0,164.3, 3.1, 1.2,0,0,1024,1024,1024,1024,164.3,0,99,4.206,4.157,4.165,0,0,0,0,84.74,91.786812976548,0,41,Motors_Started,
1200,2020-10-27 05:05:34,13.8121701500393,99.7173662794884,0,,,91.786812976548,0.656168,0,0.33709646748,10,4,0,91.786812976548,0,0,0.33709646748,0,0,0,164.3, 3.1, 1.1,0,0,1024,1024,1024,1024,164.3,0,99,4.206,4.157,4.165,0,0,0,0,84.74,91.786812976548,0,41,Motors_Started,
1300,2020-10-27 05:05:35,13.8121701417114,99.7173662312515,0,,,91.786812976548,0.656168,0,0.35416011632,10,4,12.619,91.786812976548,0,0,0.35416011632,0,0,0,164.3, 3.1, 1.1,0,0,1024,1024,1024,1024,164.3,0,99,4.206,4.157,4.165,0,0,0,3.194,84.74,91.786812976548,0,10,Assisted_Takeoff,
1400,2020-10-27 05:05:35,13.8121701235331,99.7173661747605,0,,,91.786812976548,0.656168,0,0.37523295164,9,4,12.619,91.786812976548,0,0,0.37523295164,0,0,0,164.2, 3, 1.2,0,0,1024,1024,1024,1024,164.3,0,99,4.206,4.157,4.165,0,0,0,3.194,84.74,91.786812976548,0,10,Assisted_Takeoff,
1500,2020-10-27 05:05:35,13.812170090562,99.7173660937287,0,,,91.786812976548,0.656168,0,0.40633531484,9,4,12.619,91.786812976548,0,0,0.40633531484,0,0,0,164.2, 3, 1.1,0,0,1024,1024,1024,1024,164.3,0,99,4.206,4.157,4.165,0,0,0,3.194,84.74,91.786812976548,0,10,Assisted_Takeoff,
1600,2020-10-27 05:05:35,13.8121700558534,99.7173660143851,0,,,91.786812976548,0.656168,0,0.43710303236,9,4,12.619,91.786812976548,0,0,0.43710303236,0,0,0,164.2, 3, 1.2,0,0,1024,1024,1024,1024,164.3,0,99,4.206,4.157,4.165,0,0,0,3.194,84.74,91.786812976548,0,10,Assisted_Takeoff,
1700,2020-10-27 05:05:35,13.812170048794,99.7173659538569,0,,,91.786812976548,0.656168,0,0.4581036892,9,4,12.619,91.786812976548,0,0,0.4581036892,0,0,0,164.2, 3.1, 1.1,0,0,1024,1024,1024,1024,164.3,0,99,4.206,4.157,4.165,0,0,0,3.194,84.74,91.786812976548,0,10,Assisted_Takeoff,
1800,2020-10-27 05:05:35,13.8121700323093,99.7173658888239,0,,,91.786812976548,0.656168,0,0.48181431988,9,4,12.619,91.786812976548,0,0,0.48181431988,0,0,0,164.2, 3.1, 1.1,0,0,1024,1024,1024,1024,164.3,0,99,4.206,4.157,4.165,0,0,0,3.194,84.74,91.786812976548,0,10,Assisted_Takeoff,
1900,2020-10-27 05:05:35,13.8121699995043,99.7173657983568,0,,,91.786812976548,0.656168,0,0.5160269194,9,4,12.619,91.786812976548,0,0,0.5160269194,0,0,0,164.2, 3, 1.1,0,0,1024,1024,1024,1024,164.3,0,99,4.206,4.157,4.165,0,0,0,3.194,84.74,91.786812976548,0,10,Assisted_Takeoff,
2000,2020-10-27 05:05:35,13.8121699657304,99.7173657117053,0,,,91.786812976548,0.656168,0,0.54908794408,9,4,12.619,91.786812976548,0,0,0.54908794408,0,0,0,164.2, 3.1, 1.1,0,0,1024,1024,1024,1024,164.3,0,99,4.206,4.157,4.165,0,0,0,3.194,84.74,91.786812976548,0,10,Assisted_Takeoff,
2100,2020-10-27 05:05:35,13.8121699171588,99.7173656461937,0,,,91.786812976548,0.656168,0,0.57702101584,9,4,12.619,91.786812976548,0,0,0.57702101584,0,0,0,164.2, 3, 1.2,0,0,1024,1024,1024,1024,164.3,0,99,4.206,4.157,4.165,0,0,0,3.194,84.74,91.786812976548,0,10,Assisted_Takeoff,
2200,2020-10-27 05:05:35,13.8121698716096,99.7173655770143,0,,,91.786812976548,0.656168,0,0.60587600364,9,4,12.619,91.786812976548,0,0,0.60587600364,0,0,0,164.2, 3.1, 1.1,0,0,1024,1024,1045,1024,164.3,0,99,4.206,4.157,4.165,0,0,0,3.194,84.74,91.786812976548,0,10,Assisted_Takeoff,
2300,2020-10-27 05:05:35,13.8121698143714,99.7173655278467,0,,,91.786812976548,0.656168,0,0.62986550572,9,4,12.64,91.786812976548,0,0,0.62986550572,0,0,0,164.2, 3.1, 1.1,0,0,1024,1024,1282,1024,164.3,0,99,4.206,4.157,4.165,0,0,0,3.194,84.74,91.786812976548,0,10,Assisted_Takeoff,
2400,2020-10-27 05:05:36,13.8121697612125,99.7173654700831,0,,,91.786812976548,0.656168,0,0.65630251444,9,4,12.64,91.786812976548,0,0,0.65630251444,0,0,0,164.2, 3, 1.1,0,0,1024,1024,1496,1024,164.3,0,99,4.206,4.157,4.165,0,0,0,3.194,84.74,91.786812976548,0,10,Assisted_Takeoff,
2500,2020-10-27 05:05:36,13.8121697411354,99.7173654290682,0,,,91.786812976548,0.656168,0,0.67254923412,10,4,12.64,91.786812976548,0,0,0.67254923412,0,0,0,164.2, 3, 1.1,0,0,1024,1024,1496,1024,164.3,0,99,4.206,4.157,4.165,0,0,0,3.194,84.74,91.786812976548,0,10,Assisted_Takeoff,
2600,2020-10-27 05:05:36,13.8121697119553,99.7173653778538,0,,,91.786812976548,0.656168,0,0.69344490408,10,4,12.64,91.786812976548,0,0,0.69344490408,0,0,0,164.2, 3.1, 1.1,0,0,1024,1024,1554,1024,164.3,0,99,4.206,4.157,4.165,0,0,0,3.194,84.74,91.786812976548,0,10,Assisted_Takeoff,
2700,2020-10-27 05:05:36,13.8121697135723,99.7173653025806,0,,,91.786812976548,0.656168,0,0.71769359252,10,4,12.64,91.786812976548,0,0,0.71769359252,0,0,0,164.1, 3, 1.1,0,0,1024,1024,1603,1024,164.3,0,99,4.206,4.157,4.165,0,0,0,3.194,84.74,91.786812976548,0,10,Assisted_Takeoff,
2800,2020-10-27 05:05:36,13.8121697119064,99.7173652215212,0,,,91.786812976548,0.656168,0,0.74445868524,10,4,12.64,91.786812976548,0,0,0.74445868524,0,0,0,163.9, 2.9, 1.1,0,0,1024,1024,1603,1024,164.3,0,99,4.206,4.157,4.165,0,0,0,3.194,84.74,91.786812976548,0,10,Assisted_Takeoff,
2900,2020-10-27 05:05:36,13.8121697040378,99.7173651934207,0,,,91.786812976548,0.656168,0,0.75476380368,10,4,12.64,91.786812976548,0,0,0.75476380368,0,0,0,163.9, 1.3, 1,0,0,1024,1024,1656,1024,164.2,0,99,4.206,4.157,4.165,0,0,0,3.194,84.74,91.786812976548,0,10,Assisted_Takeoff,
3000,2020-10-27 05:05:36,13.8121697098465,99.7173651384459,0,,,91.786812976548,0.656168,0,0.77208335804,10,4,12.64,91.786812976548,0,0,0.77208335804,0,0,-0.223694,163.6, -0.4, 0.8,0,0,1024,1024,1674,1024,164.2,0,99,4.206,4.157,4.165,0,0,0,3.194,84.74,91.786812976548,0,10,Assisted_Takeoff,
3100,2020-10-27 05:05:36,13.8121697338986,99.7173650440542,0,,,91.786812976548,0.656168,0.223694,0.80030186288,10,4,12.64,91.786812976548,0,0.223694,0.80030186288,0.223694,0,-0.671082,163.9, -0.3, 0.5,0,0,1024,1024,1677,1024,164.2,0,99,4.206,4.157,4.165,0,0,0,3.194,84.74,91.786812976548,0,6,P-GPS,
3200,2020-10-27 05:05:36,13.8121697371327,99.7173649441354,0,,,91.786812976548,0.656168,0,0.83329727076,10,4,12.64,91.786812976548,0,0.223694,0.83329727076,0,0,-0.894776,164, 0, 0.1,0,0,1024,1024,1679,1024,164.2,0,99,4.206,4.157,4.165,0,0,0,3.194,84.74,91.786812976548,0,6,P-GPS,
3300,2020-10-27 05:05:36,13.8121697800308,99.7173644623719,0,,,91.786812976548,0.984252,0,0.99212273516,10,4,12.403,91.786812976548,0,0.223694,0.99212273516,0,0,-1.342164,164.2, 0, -0.4,0,0,1024,1024,1684,1024,164.2,0,99,4.223,4.217,4.217,0,0,0,1.614,84.74,91.786812976548,0,6,P-GPS,
3400,2020-10-27 05:05:37,13.8121698006241,99.7173641059613,0.328084,,,92.114896976548,1.312336,0,1.1129265448,10,4,12.403,92.114896976548,0.328084,0.223694,1.1129265448,0,0,-1.789552,164.1, 0.4, -0.3,0,0,1024,1024,1684,1024,164.2,0,99,4.223,4.217,4.217,0,0,0,1.614,84.74,92.114896976548,0.328084,6,P-GPS,
3500,2020-10-27 05:05:37,13.8121698227563,99.7173637805437,0.656168,,,92.442980976548,1.64042,0,1.22399282132,10,4,12.403,92.442980976548,0.656168,0.223694,1.22399282132,0,0,-2.23694,164.1, 0.1, 0,0,0,1024,1024,1684,1024,164.2,0,99,4.223,4.217,4.217,0,0,0,1.614,84.74,92.442980976548,0.656168,6,P-GPS,
3600,2020-10-27 05:05:37,13.8121698331685,99.717363529183,0.984252,,,92.771064976548,1.968504,0,1.31075135428,10,4,12.403,92.771064976548,0.984252,0.223694,1.31075135428,0,0,-2.684328,164.1, 0.3, 0.3,0,0,1024,1024,1684,1024,164.2,0,99,4.223,4.217,4.217,0,0,0,1.614,84.74,92.771064976548,0.984252,6,P-GPS,
3700,2020-10-27 05:05:37,13.8121697173194,99.717362806417,1.312336,,,93.099148976548,2.296588,0.223694,1.5702592366,10,4,12.403,93.099148976548,1.312336,0.223694,1.5702592366,-0.223694,0,-3.35541,163.9, 0.7, 0.2,0,0,1024,1024,1684,1024,164.2,0,99,4.223,4.217,4.217,0,0,0,1.614,84.74,93.099148976548,1.312336,6,P-GPS,
3800,2020-10-27 05:05:37,13.8121696314613,99.7173622567611,1.968504,,,93.755316976548,0,0.223694,1.76747709068,10,4,12.403,93.755316976548,1.968504,0.223694,1.76747709068,-0.223694,0,-4.250186,164, 1.4, 0.1,0,0,1024,1024,1684,1024,164.2,0,99,4.223,4.217,4.217,0,0,0,1.614,84.74,93.755316976548,1.968504,6,P-GPS,Home Point Recorded. RTH Altitude:  35m.
3900,2020-10-27 05:05:37,13.8121696217542,99.7173616437191,2.624672,,,94.411484976548,0,0.223694,1.98224415792,10,4,12.403,94.411484976548,2.624672,0.223694,1.98224415792,0,0,-5.144962,164, 2.1, 0,0,0,1031,1024,1684,1024,164.2,0,99,4.223,4.217,4.217,0,0,0,1.614,84.74,94.411484976548,2.624672,6,P-GPS,
4000,2020-10-27 05:05:37,13.8121696396573,99.7173611288701,3.608924,,,95.395736976548,3.937008,0,2.16162080408,10,4,12.403,95.395736976548,3.608924,0.223694,2.16162080408,0,0,-6.039738,163.8, 2, 0.1,0,0,1038,1024,1684,1024,164.2,0,99,4.223,4.217,4.217,0,0,0,1.614,84.74,95.395736976548,3.608924,6,P-GPS,
4100,2020-10-27 05:05:37,13.8121697144175,99.7173607203761,4.593176,,,96.379988976548,4.92126,0,2.30151254084,10,4,12.403,96.379988976548,4.593176,0.223694,2.30151254084,0,0,-6.934514,163.8, 1.1, 0.2,0,0,1038,1024,1684,1024,164.2,0,99,4.223,4.217,4.217,0,0,0,1.614,84.74,96.379988976548,4.593176,6,P-GPS,
4200,2020-10-27 05:05:37,13.8121698016076,99.7173603549152,5.577428,,,97.364240976548,5.577428,0,2.42664377844,10,4,12.403,97.364240976548,5.577428,0.223694,2.42664377844,0,0,-7.605596,163.8, 0.7, 0,0,0,1041,1024,1684,1024,164.2,0,99,4.223,4.217,4.217,0,0,0,1.614,84.74,97.364240976548,5.577428,6,P-GPS,
4300,2020-10-27 05:05:37,13.8121696766669,99.7173603787143,6.889764,,,98.676576976548,6.56168,0,2.42333997256,10,4,12.209,98.676576976548,6.889764,0.223694,2.42664377844,0,0,-8.500372,163.9, 0, 0,0,0,1047,1024,1684,1024,164.2,0,99,4.005,3.999,3.986,0,0,0,11.27,84.74,98.676576976548,6.889764,6,P-GPS,
4400,2020-10-27 05:05:38,13.8121696050724,99.7173603249372,8.2021,,,99.988912976548,7.874016,0.223694,2.44552501264,10,4,12.209,99.988912976548,8.2021,0.223694,2.44552501264,0.223694,0,-8.94776,164, -1.1, 0.3,0,0,1078,1024,1684,1024,164.2,0,99,4.005,3.999,3.986,0,0,0,11.27,84.74,99.988912976548,8.2021,6,P-GPS,
4500,2020-10-27 05:05:38,13.8121694381829,99.7173602892618,9.514436,,,101.30124897655,9.186352,0,2.466699554,10,4,12.209,101.30124897655,9.514436,0.223694,2.466699554,0,0,-9.395148,164.2, -1, 0.4,0,0,1078,1024,1684,1024,164.2,0,99,4.005,3.999,3.986,0,0,0,11.27,84.74,101.30124897655,9.514436,6,P-GPS,
4600,2020-10-27 05:05:38,13.8121692872652,99.717360208718,11.154856,,,102.94166897655,10.498688,0,2.50387803288,10,4,12.209,102.94166897655,11.154856,0.223694,2.50387803288,0,0,-9.395148,164.1, -0.6, 0.5,0,0,1077,1024,1684,1024,164.2,0,99,4.005,3.999,3.986,0,0,0,11.27,84.74,102.94166897655,11.154856,6,P-GPS,
4700,2020-10-27 05:05:38,13.8121690678031,99.7173602220906,12.467192,,,104.25400497655,11.811024,0,2.51438328256,10,4,12.209,104.25400497655,12.467192,0.223694,2.51438328256,0,0,-9.395148,164, -0.4, 0.6,0,0,1077,1024,1684,1024,164.2,0,99,4.005,3.999,3.986,0,0,0,11.27,84.74,104.25400497655,12.467192,6,P-GPS,
4800,2020-10-27 05:05:38,13.8121688701963,99.7173601854205,13.779528,,,105.56634097655,13.12336,0,2.54277567192,10,4,12.209,105.56634097655,13.779528,0.223694,2.54277567192,0,0,-9.395148,164, -0.3, 0.5,0,0,1059,1024,1684,1024,164.2,0,99,4.005,3.999,3.986,0,0,0,11.27,84.74,105.56634097655,13.779528,6,P-GPS,
4900,2020-10-27 05:05:38,13.8121688376339,99.7173603212225,15.091864,,,106.87867697655,14.435696,0,2.49880913508,10,4,12.209,106.87867697655,15.091864,0.223694,2.54277567192,0,0,-9.171454,164.1, -0.1, 0.2,0,0,1055,1024,1684,1024,164.2,0,99,4.005,3.999,3.986,0,0,0,11.27,84.74,106.87867697655,15.091864,6,P-GPS,
5000,2020-10-27 05:05:38,13.812168763214,99.7173603906909,16.4042,,,108.19101297655,15.748032,0,2.48163393768,10,4,12.209,108.19101297655,16.4042,0.223694,2.54277567192,0,0,-9.171454,164.2, 0.2, 0,0,0,1051,1024,1684,1024,164.2,0,99,4.005,3.999,3.986,0,0,0,11.27,84.74,108.19101297655,16.4042,6,P-GPS,
5100,2020-10-27 05:05:38,13.8121688051986,99.7173605488761,18.04462,,,109.83143297655,17.060368,0.223694,2.42353682296,10,4,12.209,109.83143297655,18.04462,0.223694,2.54277567192,0,0.223694,-8.94776,164.3, 0.1, 0.5,0,0,1033,1024,1684,1024,164.2,0,99,4.005,3.999,3.986,0,0,0,11.27,84.74,109.83143297655,18.04462,6,P-GPS,
5200,2020-10-27 05:05:38,13.8121687900915,99.7173606505632,19.356956,,,111.14376897655,18.372704,0.223694,2.39010506336,10,4,12.209,111.14376897655,19.356956,0.223694,2.54277567192,0,0.223694,-8.94776,164.2, 0.4, 0.3,0,0,1024,1024,1684,1024,164.2,0,99,4.005,3.999,3.986,0,0,0,11.27,84.74,111.14376897655,19.356956,6,P-GPS,
5300,2020-10-27 05:05:38,13.8121690194855,99.7173610007212,20.669292,,,112.45610497655,19.68504,0.223694,2.24918642368,10,4,11.928,112.45610497655,20.669292,0.223694,2.54277567192,0,0.223694,-8.94776,163.9, 0.5, 0.6,0,0,1024,1024,1684,1024,164.2,0,99,3.97,3.968,3.962,0,0,0,11.866,84.74,112.45610497655,20.669292,6,P-GPS,
5400,2020-10-27 05:05:39,13.8121691519481,99.7173612520654,21.981628,,,113.76844097655,20.997376,0.223694,2.1513780216,10,4,11.928,113.76844097655,21.981628,0.223694,2.54277567192,0,0.223694,-8.94776,163.8, 0.8, 1.5,0,0,1024,1024,1684,1024,164.2,0,99,3.97,3.968,3.962,0,0,0,11.866,84.74,113.76844097655,21.981628,6,P-GPS,
5500,2020-10-27 05:05:39,13.8121694933953,99.7173615015211,23.293964,,,115.08077697655,22.309712,0.223694,2.03974415976,10,4,11.928,115.08077697655,23.293964,0.223694,2.54277567192,0,0.223694,-8.94776,163.9, 0.5, 2,0,0,1024,1024,1684,1024,164.2,0,99,3.97,3.968,3.962,0,0,0,11.866,84.74,115.08077697655,23.293964,6,P-GPS,
5600,2020-10-27 05:05:39,13.8121697144256,99.7173616705658,23.950132,,,115.73694497655,23.622048,0,1.96777237268,10,4,11.928,115.73694497655,23.950132,0.223694,2.54277567192,0,0,-8.276678,164.1, 0, 1.4,0,0,1024,1024,1684,1024,164.2,0,99,3.97,3.968,3.962,0,0,0,11.866,84.74,115.73694497655,23.950132,6,P-GPS,
5700,2020-10-27 05:05:39,13.8121701979758,99.7173619666351,25.262468,,,117.04928097655,24.6063,0,1.8458333924,10,4,11.928,117.04928097655,25.262468,0.223694,2.54277567192,0,0,-8.052984,164, 0.4, 1.4,0,0,1024,1024,1684,1024,164.2,0,99,3.97,3.968,3.962,0,0,0,11.866,84.74,117.04928097655,25.262468,6,P-GPS,
5800,2020-10-27 05:05:39,13.8121705269589,99.7173621815529,26.24672,,,118.03353297655,25.918636,0,1.7669127862,10,4,11.928,118.03353297655,26.24672,0.223694,2.54277567192,0,0,-7.82929,164, 0.8, 1.1,0,0,1024,1024,1684,1024,164.2,0,99,3.97,3.968,3.962,0,0,0,11.866,84.74,118.03353297655,26.24672,6,P-GPS,
5900,2020-10-27 05:05:39,13.8121709428261,99.7173624669392,27.559056,,,119.34586897655,27.230972,0,1.67427170712,10,4,11.928,119.34586897655,27.559056,0.223694,2.54277567192,0,0,-7.82929,164.2, 0.7, 0.9,0,0,1024,1024,1684,1024,164.2,0,99,3.97,3.968,3.962,0,0,0,11.866,84.74,119.34586897655,27.559056,6,P-GPS,
6000,2020-10-27 05:05:39,13.8121712571825,99.7173626824923,28.543308,,,120.33012097655,28.543308,0,1.61447183644,10,4,11.928,120.33012097655,28.543308,0.223694,2.54277567192,0,0,-7.82929,164.1, 0.4, 1,0,0,1024,1024,1684,1024,164.2,0,99,3.97,3.968,3.962,0,0,0,11.866,84.74,120.33012097655,28.543308,6,P-GPS,
6100,2020-10-27 05:05:39,13.812171670835,99.7173628321554,29.855644,,,121.64245697655,29.855644,0,1.596620786,10,4,11.928,121.64245697655,29.855644,0.223694,2.54277567192,0,0,-8.052984,164, 0.1, 0.9,0,0,1024,1024,1684,1024,164.2,0,99,3.97,3.968,3.962,0,0,0,11.866,84.74,121.64245697655,29.855644,6,P-GPS,
6200,2020-10-27 05:05:39,13.8121719894971,99.7173629569635,30.839896,,,122.62670897655,31.16798,0,1.59055451284,10,4,11.928,122.62670897655,30.839896,0.223694,2.54277567192,0,0,-8.276678,164.2, 0, 0.8,0,0,1024,1024,1684,1024,164.2,0,99,3.97,3.968,3.962,0,0,0,11.866,84.74,122.62670897655,30.839896,6,P-GPS,
6300,2020-10-27 05:05:39,13.8121723227549,99.7173629895114,32.152232,,,123.93904497655,32.152232,0,1.62614178432,10,4,11.82,123.93904497655,32.152232,0.223694,2.54277567192,0,0,-8.276678,164.1, -0.3, 0.8,0,0,1024,1024,1684,1024,164.2,0,99,3.97,3.968,3.962,0,0,0,11.866,84.74,123.93904497655,32.152232,6,P-GPS,
6400,2020-10-27 05:05:40,13.8121725782838,99.7173630364559,33.464568,,,125.25138097655,33.464568,0,1.65210635208,10,4,11.82,125.25138097655,33.464568,0.223694,2.54277567192,0,0,-8.052984,164.1, 0.2, 0.6,0,0,1024,1024,1684,1024,164.2,0,99,3.97,3.968,3.962,0,0,0,11.866,84.74,125.25138097655,33.464568,6,P-GPS,
6500,2020-10-27 05:05:40,13.8121727814126,99.7173630593866,34.44882,,,126.23563297655,34.44882,0,1.680692311,10,4,11.82,126.23563297655,34.44882,0.223694,2.54277567192,0,0,-8.276678,164.3, 0.6, 0.2,0,0,1024,1024,1684,1024,164.2,0,99,3.97,3.968,3.962,0,0,0,11.866,84.74,126.23563297655,34.44882,6,P-GPS,
6600,2020-10-27 05:05:40,13.8121729640296,99.7173631077503,35.761156,,,127.54796897655,35.433072,0,1.70043312528,10,4,11.82,127.54796897655,35.761156,0.223694,2.54277567192,0,0,-8.276678,164.1, 0.8, 0.7,0,0,1024,1024,1684,1024,164.2,0,99,3.97,3.968,3.962,0,0,0,11.866,84.74,127.54796897655,35.761156,6,P-GPS,
6700,2020-10-27 05:05:40,13.8121731325149,99.7173631842675,37.073492,,,128.86030497655,36.417324,0,1.71155845372,10,4,11.82,128.86030497655,37.073492,0.223694,2.54277567192,0,0,-8.276678,164.2, 1, 0.9,0,0,1024,1024,1684,1024,164.2,0,99,3.97,3.968,3.962,0,0,0,11.866,84.74,128.86030497655,37.073492,6,P-GPS,
6800,2020-10-27 05:05:40,13.8121732972516,99.7173632580354,38.057744,,,129.84455697655,37.073492,0,1.72519362476,10,4,11.82,129.84455697655,38.057744,0.223694,2.54277567192,0,0,-8.276678,164.2, 1.2, 0,0,0,1024,1024,1684,1024,164.2,0,99,3.97,3.968,3.962,0,0,0,11.866,84.74,129.84455697655,38.057744,6,P-GPS,
6900,2020-10-27 05:05:40,13.8121736023601,99.7173634459445,39.37008,,,131.15689297655,37.72966,0,1.74285110564,10,4,11.82,131.15689297655,39.37008,0.223694,2.54277567192,0,0,-8.276678,164, 0.9, 0.3,0,0,1024,1024,1684,1024,164.2,0,99,3.97,3.968,3.962,0,0,0,11.866,84.74,131.15689297655,39.37008,6,P-GPS,
7000,2020-10-27 05:05:40,13.8121738809413,99.7173636169019,40.682416,,,132.46922897655,38.713912,0,1.767306487,10,4,11.82,132.46922897655,40.682416,0.223694,2.54277567192,0,0,-8.500372,164, 0.5, 1.2,0,0,1024,1024,1684,1024,164.2,0,99,3.97,3.968,3.962,0,0,0,11.866,84.74,132.46922897655,40.682416,6,P-GPS,
7100,2020-10-27 05:05:40,13.8121740981334,99.7173638333338,41.994752,,,133.78156497655,39.37008,0,1.77178811444,10,4,11.82,133.78156497655,41.994752,0.223694,2.54277567192,0,0,-8.500372,164.2, 0.7, 2.1,0,0,1024,1024,1684,1024,164.2,0,99,3.97,3.968,3.962,0,0,0,11.866,84.74,133.78156497655,41.994752,6,P-GPS,
7200,2020-10-27 05:05:40,13.8121743075285,99.7173640055131,43.307088,,,135.09390097655,40.026248,0,1.79062997856,10,4,11.82,135.09390097655,43.307088,0.223694,2.54277567192,0,0,-8.276678,164, 0.6, 2.8,0,0,1024,1024,1684,1125,164.2,0,99,3.97,3.968,3.962,0,0,0,11.866,84.74,135.09390097655,43.307088,6,P-GPS,
7300,2020-10-27 05:05:40,13.8121745517006,99.7173640747664,44.29134,,,136.07815297655,40.354332,0,1.84627958664,10,4,11.907,136.07815297655,44.29134,0.223694,2.54277567192,0,0,-8.276678,164.2, 0.1, 1.8,0,0,1024,1024,1684,1160,164.4,0,99,3.945,3.943,3.935,0,0,0,11.908,84.92,136.07815297655,44.29134,6,P-GPS,
7400,2020-10-27 05:05:41,13.8121747673473,99.7173641296187,45.603676,,,137.39048897655,41.0105,0,1.8990814256,10,4,11.907,137.39048897655,45.603676,0.223694,2.54277567192,0,0,-8.276678,164.1, 0.2, 1.5,0,0,1024,1024,1684,1161,164.6,0,99,3.945,3.943,3.935,0,0,0,11.908,84.92,137.39048897655,45.603676,6,P-GPS,
7500,2020-10-27 05:05:41,13.8121749546265,99.7173641600803,46.916012,,,138.70282497655,42.322836,0,1.94982945872,10,4,11.907,138.70282497655,46.916012,0.223694,2.54277567192,0,0,-8.276678,164.2, 1.2, 1.8,0,0,1024,1024,1684,1197,165,0,99,3.945,3.943,3.935,0,0,0,11.908,84.92,138.70282497655,46.916012,6,P-GPS,
7600,2020-10-27 05:05:41,13.8121751369308,99.7173641744999,47.900264,,,139.68707697655,43.635172,0,2.00314638956,10,4,11.907,139.68707697655,47.900264,0.223694,2.54277567192,0,0,-8.052984,164.5, 1.6, 0.8,0,0,1024,1024,1684,1209,165.3,0,99,3.945,3.943,3.935,0,0,0,11.908,84.92,139.68707697655,47.900264,6,P-GPS,
7700,2020-10-27 05:05:41,13.8121752605265,99.7173641216513,49.2126,,,140.99941297655,44.619424,0,2.0513288058,10,4,11.907,140.99941297655,49.2126,0.223694,2.54277567192,0,0,-8.052984,164.7, 0.5, 1.2,0,0,1024,1024,1684,1211,166,0,99,3.945,3.943,3.935,0,0,0,11.908,84.92,140.99941297655,49.2126,6,P-GPS,
7800,2020-10-27 05:05:41,13.8121754082947,99.7173640758361,50.524936,,,142.31174897655,45.93176,0,2.10576778392,10,4,11.907,142.31174897655,50.524936,0.223694,2.54277567192,0,0,-8.276678,165.1, -1.2, 1,0,0,1024,1024,1684,1218,166.7,0,99,3.945,3.943,3.935,0,0,0,11.908,84.92,142.31174897655,50.524936,6,P-GPS,
7900,2020-10-27 05:05:41,13.8121755794133,99.7173640086141,51.837272,,,143.62408497655,47.244096,0,2.17150925584,10,4,11.907,143.62408497655,51.837272,0.223694,2.54277567192,0,0,-8.500372,165.7, 0.2, 0.7,0,0,1024,1024,1684,1217,167.4,0,99,3.945,3.943,3.935,0,0,0,11.908,84.92,143.62408497655,51.837272,6,P-GPS,
8000,2020-10-27 05:05:41,13.8121757067657,99.7173639600409,53.149608,,,144.93642097655,48.556432,0,2.22021332564,10,4,11.907,144.93642097655,53.149608,0.223694,2.54277567192,0,0,-8.724066,166.5, 1.2, 0.3,0,0,1024,1024,1684,1217,168.1,0,99,3.945,3.943,3.935,0,0,0,11.908,84.92,144.93642097655,53.149608,6,P-GPS,
8100,2020-10-27 05:05:41,13.8121757891112,99.7173638898006,54.461944,,,146.24875697655,49.868768,0,2.25876975732,10,4,11.907,146.24875697655,54.461944,0.223694,2.54277567192,0,0,-8.724066,167.3, 2, 0.3,0,0,1024,1024,1684,1215,168.8,0,99,3.945,3.943,3.935,0,0,0,11.908,84.92,146.24875697655,54.461944,6,P-GPS,
8200,2020-10-27 05:05:41,13.812175883675,99.7173638363565,55.77428,,,147.56109297655,51.181104,0,2.2980971864,10,4,11.907,147.56109297655,55.77428,0.223694,2.54277567192,0,0,-8.94776,168, 2.2, 0.6,0,0,1024,1024,1684,1214,169.5,0,99,3.945,3.943,3.935,0,0,0,11.908,84.92,147.56109297655,55.77428,6,P-GPS,
8300,2020-10-27 05:05:41,13.8121758900683,99.7173637559819,57.086616,,,148.87342897655,52.49344,0,2.3148458746,10,4,11.734,148.87342897655,57.086616,0.223694,2.54277567192,0,0,-8.94776,168.6, 2, 0,0,0,1024,1024,1684,1212,170.2,0,99,3.907,3.903,3.89,0,0,0,13.184,84.92,148.87342897655,57.086616,6,P-GPS,
8400,2020-10-27 05:05:42,13.8121759386675,99.7173636973846,58.398952,,,150.18576497655,0,0,2.34082356572,10,4,11.734,150.18576497655,58.398952,0.223694,2.54277567192,0,0,-8.94776,169.4, 1.8, -0.3,0,0,1024,1024,1684,1212,170.9,0,99,3.907,3.903,3.89,0,0,0,13.184,84.92,150.18576497655,58.398952,6,P-GPS,
8500,2020-10-27 05:05:42,13.8121759594937,99.7173635209762,59.711288,,,151.49810097655,0,0,2.38063327828,10,4,11.734,151.49810097655,59.711288,0.223694,2.54277567192,0,0,-9.171454,170.1, -0.1, 0.1,0,0,1024,1024,1684,1212,171.6,0,99,3.907,3.903,3.89,0,0,0,13.184,84.92,151.49810097655,59.711288,6,P-GPS,
8600,2020-10-27 05:05:42,13.8121759826323,99.7173634129356,61.351708,,,153.13852097655,0,0,2.4086614944,10,4,11.734,153.13852097655,61.351708,0.223694,2.54277567192,0,0,-9.395148,171.2, 0.2, 2.1,0,0,1024,1024,1684,1212,172.3,0,99,3.907,3.903,3.89,0,0,0,13.184,84.92,153.13852097655,61.351708,6,P-GPS,
8700,2020-10-27 05:05:42,13.8121759659928,99.7173633438875,62.664044,,,154.45085697655,0,0.223694,2.41723104848,10,4,11.734,154.45085697655,62.664044,0.223694,2.54277567192,-0.223694,0,-9.395148,171.6, 1.4, 2.4,0,0,1024,1024,1684,1213,173,0,99,3.907,3.903,3.89,0,0,0,13.184,84.92,154.45085697655,62.664044,6,P-GPS,
8800,2020-10-27 05:05:42,13.8121759435806,99.7173632780891,63.97638,,,155.76319297655,0,0.223694,2.42364509068,10,4,11.734,155.76319297655,63.97638,0.223694,2.54277567192,-0.223694,0,-9.171454,172.3, 2.8, 2.1,0,0,1024,1024,1684,1212,173.7,0,99,3.907,3.903,3.89,0,0,0,13.184,84.92,155.76319297655,63.97638,6,P-GPS,
8900,2020-10-27 05:05:42,13.8121759081538,99.7173632118486,65.6168,,,157.40361297655,0,0,2.42650598316,10,4,11.734,157.40361297655,65.6168,0.223694,2.54277567192,0,0,-9.171454,172.9, 3.5, 1,0,0,1024,1024,1684,1214,174.3,0,99,3.907,3.903,3.89,0,0,0,13.184,84.92,157.40361297655,65.6168,6,P-GPS,
9000,2020-10-27 05:05:42,13.81217591215,99.7173631435459,66.929136,,,158.71594897655,0,0,2.4417487658,10,4,11.734,158.71594897655,66.929136,0.223694,2.54277567192,0,0,-9.395148,173.5, 2.6, 0.8,0,0,1024,1024,1684,1215,175,0,99,3.907,3.903,3.89,0,0,0,13.184,84.92,158.71594897655,66.929136,6,P-GPS,
9100,2020-10-27 05:05:42,13.8121759768399,99.7173630206776,68.569556,,,160.35636897655,0,0,2.48642396408,10,4,11.734,160.35636897655,68.569556,0.223694,2.54277567192,0,0,-9.395148,174.2, 1.8, 0.9,0,0,1024,1024,1684,1215,175.7,0,99,3.907,3.903,3.89,0,0,0,13.184,84.92,160.35636897655,68.569556,6,P-GPS,
9200,2020-10-27 05:05:42,13.8121760396718,99.7173629238421,69.881892,,,161.66870497655,0,0,2.52523302044,10,4,11.734,161.66870497655,69.881892,0.223694,2.54277567192,0,0,-9.171454,174.9, 1.1, 1,0,0,1024,1024,1684,1225,176.4,0,99,3.907,3.903,3.89,0,0,0,13.184,84.92,161.66870497655,69.881892,6,P-GPS,
9300,2020-10-27 05:05:42,13.8121760659158,99.7173628890214,71.522312,,,163.30912497655,0,0,2.54027567184,10,4,11.95,163.30912497655,71.522312,0.223694,2.54277567192,0,0,-9.171454,175.8, 1.1, 1.3,0,0,1024,1024,1684,1241,177.2,0,99,3.907,3.903,3.89,0,0,0,13.184,84.92,163.30912497655,71.522312,6,P-GPS,
9400,2020-10-27 05:05:43,13.8121760654696,99.7173628578762,72.834648,,,164.62146097655,0,0,2.54674548832,10,4,11.95,164.62146097655,72.834648,0.223694,2.54674548832,0,0,-9.171454,176.2, 1.7, 1.4,0,0,1024,1024,1684,1243,178,0,99,3.907,3.903,3.89,0,0,0,13.184,84.92,164.62146097655,72.834648,6,P-GPS,
9500,2020-10-27 05:05:43,13.8121760006754,99.7173628354019,74.475068,,,166.26188097655,0,0.223694,2.53268708892,10,4,11.95,166.26188097655,74.475068,0.223694,2.54674548832,-0.223694,0,-9.171454,177.5, 2.9, 2.1,0,0,1024,1024,1684,1263,178.9,0,99,3.907,3.903,3.89,0,0,0,13.184,84.92,166.26188097655,74.475068,6,P-GPS,
9600,2020-10-27 05:05:43,13.8121759306637,99.7173628180809,75.787404,,,167.57421697655,0,0.223694,2.51617134036,10,4,11.95,167.57421697655,75.787404,0.223694,2.54674548832,-0.223694,0,-9.171454,177.8, 3.4, 2.9,0,0,1024,1024,1684,1267,179.9,0,99,3.907,3.903,3.89,0,0,0,13.184,84.92,167.57421697655,75.787404,6,P-GPS,
9700,2020-10-27 05:05:43,13.8121758121195,99.7173627285688,77.427824,,,169.21463697655,0,0.223694,2.50194561812,10,4,11.95,169.21463697655,77.427824,0.223694,2.54674548832,-0.223694,0,-9.171454,179.1, 3.8, 2.6,0,0,1024,1024,1684,1269,181.1,0,99,3.907,3.903,3.89,0,0,0,13.184,84.92,169.21463697655,77.427824,6,P-GPS,
9800,2020-10-27 05:05:43,13.8121757168311,99.7173626392012,79.068244,,,170.85505697655,0,0.223694,2.49524942368,10,4,11.95,170.85505697655,79.068244,0.223694,2.54674548832,-0.223694,0,-9.171454,179.6, 3.9, 2.1,0,0,1024,1024,1684,1269,182.2,0,99,3.907,3.903,3.89,0,0,0,13.184,84.92,170.85505697655,79.068244,6,P-GPS,
9900,2020-10-27 05:05:43,13.8121755861273,99.7173625262589,80.38058,,,172.16739297655,0,0.223694,2.4852198958,10,4,11.95,172.16739297655,80.38058,0.223694,2.54674548832,-0.223694,0,-9.171454,181.1, 3.9, 2,0,0,1024,1024,1684,1276,183.4,0,99,3.907,3.903,3.89,0,0,0,13.184,84.92,172.16739297655,80.38058,6,P-GPS,
10000,2020-10-27 05:05:43,13.8121754780882,99.717362420062,82.021,,,173.80781297655,0,0.223694,2.48116477756,10,4,11.95,173.80781297655,82.021,0.223694,2.54674548832,-0.223694,0,-9.395148,182.1, 4.8, 2.1,0,0,1024,1024,1684,1284,184.6,0,99,3.907,3.903,3.89,0,0,0,13.184,84.92,173.80781297655,82.021,6,P-GPS,
10100,2020-10-27 05:05:43,13.8121753994914,99.7173622757484,83.66142,,,175.44823297655,0,0.223694,2.495406904,10,4,11.95,175.44823297655,83.66142,0.223694,2.54674548832,-0.223694,0,-9.171454,183.6, 4.1, 2.5,0,0,1024,1024,1684,1285,185.9,0,99,3.907,3.903,3.89,0,0,0,13.184,84.92,175.44823297655,83.66142,6,P-GPS,
10200,2020-10-27 05:05:43,13.8121753358111,99.7173621241146,85.30184,,,177.08865297655,0,0.223694,2.51661097292,10,4,11.95,177.08865297655,85.30184,0.223694,2.54674548832,-0.223694,0,-9.395148,184.6, 4.1, 1.4,0,0,1024,1024,1684,1289,187.2,0,99,3.907,3.903,3.89,0,0,0,13.184,84.92,177.08865297655,85.30184,6,P-GPS,
10300,2020-10-27 05:05:43,13.8121752843604,99.7173619968705,86.94226,,,178.72907297655,0,0.223694,2.5358104486,10,4,12.122,178.72907297655,86.94226,0.223694,2.54674548832,-0.223694,0,-9.395148,186, 4.6, 1.4,0,0,1024,1024,1684,1323,188.5,0,99,3.919,3.919,3.909,0,0,0,12.114,85.1,178.72907297655,86.94226,6,P-GPS,
10400,2020-10-27 05:05:44,13.8121752342922,99.7173618857091,88.58268,,,180.36949297655,0,0.223694,2.55195874308,10,4,12.122,180.36949297655,88.58268,0.223694,2.55195874308,-0.223694,0,-9.395148,187.3, 5.4, 1.7,0,0,1024,1024,1684,1336,190.1,0,99,3.919,3.919,3.909,0,0,0,12.114,85.1,180.36949297655,88.58268,6,P-GPS,
10500,2020-10-27 05:05:44,13.8121752013342,99.7173617455131,90.2231,,,182.00991297655,0,0,2.58056438704,10,4,12.122,182.00991297655,90.2231,0.223694,2.58056438704,0,0,-9.395148,188.4, 5.2, 1.8,0,0,1024,1024,1684,1336,192,0,99,3.919,3.919,3.909,0,0,0,12.114,85.1,182.00991297655,90.2231,6,P-GPS,
10600,2020-10-27 05:05:44,13.8121751891795,99.7173616327246,91.535436,,,183.32224897655,0,0,2.607529611,10,4,12.122,183.32224897655,91.535436,0.223694,2.607529611,0,0,-9.395148,189.9, 4.6, 2.5,0,0,1024,1024,1684,1341,193.9,0,99,3.919,3.919,3.909,0,0,0,12.114,85.1,183.32224897655,91.535436,6,P-GPS,
10700,2020-10-27 05:05:44,13.8121751472372,99.717361489963,93.175856,,,184.96266897655,0,0,2.63587278776,10,4,12.122,184.96266897655,93.175856,0.223694,2.63587278776,0,0,-9.171454,191.9, 4.2, 2.8,0,0,1024,1024,1684,1348,195.9,0,99,3.919,3.919,3.909,0,0,0,12.114,85.1,184.96266897655,93.175856,6,P-GPS,
10800,2020-10-27 05:05:44,13.8121751213629,99.7173613659925,94.816276,,,186.60308897655,0,0,2.6635335498,10,4,12.122,186.60308897655,94.816276,0.223694,2.6635335498,0,0,-9.171454,193.9, 4.2, 3.6,0,0,1024,1024,1684,1354,197.9,0,99,3.919,3.919,3.909,0,0,0,12.114,85.1,186.60308897655,94.816276,6,P-GPS,
10900,2020-10-27 05:05:44,13.8121750852131,99.7173612225164,96.456696,,,188.24350897655,0,0,2.694717934,10,4,12.122,188.24350897655,96.456696,0.223694,2.694717934,0,0,-9.171454,195.7, 3.9, 3.6,0,0,1024,1024,1684,1358,200,0,99,3.919,3.919,3.909,0,0,0,12.114,85.1,188.24350897655,96.456696,6,P-GPS,
11000,2020-10-27 05:05:44,13.8121750634831,99.717361077734,98.097116,,,189.88392897655,0,0,2.73014116348,10,4,12.122,189.88392897655,98.097116,0.223694,2.73014116348,0,0,-9.171454,197.1, 4.2, 2.8,0,0,1024,1024,1684,1373,202.2,0,99,3.919,3.919,3.909,0,0,0,12.114,85.1,189.88392897655,98.097116,6,P-GPS,
11100,2020-10-27 05:05:44,13.8121750207332,99.7173608721048,99.737536,,,191.52434897655,0,0,2.7787566506,10,4,12.122,191.52434897655,99.737536,0.223694,2.7787566506,0,0,-9.171454,199.4, 3.9, 3.3,0,0,1024,1024,1684,1393,204.5,0,99,3.919,3.919,3.909,0,0,0,12.114,85.1,191.52434897655,99.737536,6,P-GPS,
11200,2020-10-27 05:05:44,13.8121749951259,99.7173606853718,101.377956,,,193.16476897655,0,0,2.82668644216,10,4,12.122,193.16476897655,101.377956,0.223694,2.82668644216,0,0,-9.395148,201.9, 4.2, 3.4,0,0,1024,1024,1649,1536,207.1,0,99,3.919,3.919,3.909,0,0,0,12.114,85.1,193.16476897655,101.377956,6,P-GPS,
11300,2020-10-27 05:05:44,13.8121749832643,99.7173604550347,103.018376,,,194.80518897655,0,0,2.8909285702,10,4,11.971,194.80518897655,103.018376,0.223694,2.8909285702,0,0,-9.395148,204.4, 4.6, 3.7,0,0,1024,1024,1024,1024,209.5,0,99,3.933,3.93,3.922,0,0,0,10.918,85.1,194.80518897655,103.018376,6,P-GPS,
11400,2020-10-27 05:05:45,13.8121749829859,99.7173602400689,104.658796,,,196.44560897655,0,0,2.95385180056,10,4,11.971,196.44560897655,104.658796,0.223694,2.95385180056,0,0,-9.171454,207.2, 4.8, 3.7,0,0,1024,1024,1024,1024,209.5,0,99,3.933,3.93,3.922,0,0,0,10.918,85.1,196.44560897655,104.658796,6,P-GPS,
11500,2020-10-27 05:05:45,13.8121749534166,99.7173600559522,106.299216,,,198.08602897655,0,0,3.00240167088,10,4,11.971,198.08602897655,106.299216,0.223694,3.00240167088,0,0,-8.276678,208.6, 5.1, 4.1,0,0,1026,1024,1024,1024,209.5,0,99,3.933,3.93,3.922,0,0,0,10.918,85.1,198.08602897655,106.299216,6,P-GPS,
11600,2020-10-27 05:05:45,13.8121749421478,99.7173598829938,107.611552,,,199.39836497655,0,0,3.0518209638,10,4,11.971,199.39836497655,107.611552,0.223694,3.0518209638,0,0,-7.605596,209.4, 4.7, 4.7,0,0,1027,1024,1024,1024,209.5,0,99,3.933,3.93,3.922,0,0,0,10.918,85.1,199.39836497655,107.611552,6,P-GPS,
11700,2020-10-27 05:05:45,13.8121749456375,99.7173597093126,108.923888,,,200.71070097655,0,0,3.1047081046,10,4,11.971,200.71070097655,108.923888,0.223694,3.1047081046,0,0,-6.71082,209.7, 4.6, 5.1,0,0,1027,1024,1024,1024,209.5,0,99,3.933,3.93,3.922,0,0,0,10.918,85.1,200.71070097655,108.923888,6,P-GPS,
11800,2020-10-27 05:05:45,13.8121749559309,99.7173595371812,109.90814,,,201.69495297655,0,0,3.15872057352,10,4,11.971,201.69495297655,109.90814,0.223694,3.15872057352,0,0,-5.59235,209.8, 4.4, 5,0,0,1033,1024,1024,1024,209.5,0,99,3.933,3.93,3.922,0,0,0,10.918,85.1,201.69495297655,109.90814,6,P-GPS,
11900,2020-10-27 05:05:45,13.8121749629186,99.717359371136,110.892392,,,202.67920497655,0,0,3.21051847544,10,4,11.971,202.67920497655,110.892392,0.223694,3.21051847544,0,0,-4.47388,209.9, 4.5, 5,0,0,1034,1024,1024,1024,209.5,0,99,3.933,3.93,3.922,0,0,0,10.918,85.1,202.67920497655,110.892392,6,P-GPS,
12000,2020-10-27 05:05:45,13.8121749729986,99.7173592035409,111.54856,,,203.33537297655,0,0,3.2635991858,10,4,11.971,203.33537297655,111.54856,0.223694,3.2635991858,0,0,-3.579104,209.9, 4.6, 5.2,0,0,1027,1024,1024,1024,209.5,0,99,3.933,3.93,3.922,0,0,0,10.918,85.1,203.33537297655,111.54856,6,P-GPS,
12100,2020-10-27 05:05:45,13.8121749718636,99.7173590879569,112.204728,,,203.99154097655,0,0,3.2988518116,10,4,11.971,203.99154097655,112.204728,0.223694,3.2988518116,0,0,-2.684328,209.8, 4.7, 5.4,0,0,1024,1024,1024,1130,209.5,0,99,3.933,3.93,3.922,0,0,0,10.918,85.1,203.99154097655,112.204728,6,P-GPS,
12200,2020-10-27 05:05:45,13.8121749780615,99.7173589556837,112.860896,,,204.64770897655,0,0,3.34071533,10,4,11.971,204.64770897655,112.860896,0.223694,3.34071533,0,0,-1.789552,209.8, 5, 5.6,0,0,1024,1024,1024,1323,209.6,0,99,3.933,3.93,3.922,0,0,0,10.918,85.1,204.64770897655,112.860896,6,P-GPS,
12300,2020-10-27 05:05:45,13.8121749813639,99.7173587855996,113.18898,,,204.97579297655,0,0,3.3939305548,10,4,12.187,204.97579297655,113.18898,0.223694,3.3939305548,0,0,-1.11847,209.9, 5.3, 5.5,0,0,1024,1024,1058,1444,211,0,98,4.048,4.047,4.044,0,0,0,6.446,85.28,204.97579297655,113.18898,6,P-GPS,
12400,2020-10-27 05:05:46,13.8121750111922,99.7173586127267,113.517064,,,205.30387697655,0,0,3.4528544412,10,4,12.187,205.30387697655,113.517064,0.223694,3.4528544412,0,0,-0.671082,210.3, 5.3, 5.2,0,0,1024,1024,1091,1492,213.6,0,98,4.048,4.047,4.044,0,0,0,6.446,85.28,205.30387697655,113.517064,6,P-GPS,
12500,2020-10-27 05:05:46,13.8121750994164,99.7173584903976,113.845148,,,205.63196097655,0,0,3.5063321332,10,4,12.187,205.63196097655,113.845148,0.223694,3.5063321332,0,0,-0.447388,211.7, 4.9, 5.4,0,0,1024,1024,1109,1497,217.6,0,98,4.048,4.047,4.044,0,0,0,6.446,85.28,205.63196097655,113.845148,6,P-GPS,
12600,2020-10-27 05:05:46,13.8121752096685,99.7173583510469,113.845148,,,205.63196097655,0,0,3.5689633688,10,4,12.187,205.63196097655,113.845148,0.223694,3.5689633688,0,0,-0.223694,214.1, 4.6, 5.5,0,0,1024,1024,1124,1520,222,0,98,4.048,4.047,4.044,0,0,0,6.446,85.28,205.63196097655,113.845148,6,P-GPS,
12700,2020-10-27 05:05:46,13.8121753560836,99.7173582941798,114.173232,,,205.96004497655,0,0,3.6126313492,10,4,12.187,205.96004497655,114.173232,0.223694,3.6126313492,0,0,-0.223694,218, 4.2, 5.7,0,0,1024,1024,1130,1520,226.8,0,98,4.048,4.047,4.044,0,0,0,6.446,85.28,205.96004497655,114.173232,6,P-GPS,
12800,2020-10-27 05:05:46,13.8121755221751,99.7173581997511,114.501316,,,206.28812897655,0,0,3.6717848944,10,4,12.187,206.28812897655,114.501316,0.223694,3.6717848944,0,0,-0.223694,222.4, 3.6, 6.2,0,0,1024,1024,1146,1531,231.8,0,98,4.048,4.047,4.044,0,0,0,6.446,85.28,206.28812897655,114.501316,6,P-GPS,
12900,2020-10-27 05:05:46,13.81217572412,99.717358036609,114.8294,,,206.61621297655,0,0,3.758858388,10,4,12.187,206.61621297655,114.8294,0.223694,3.758858388,0,0,-0.223694,227.2, 3.3, 6.4,0,0,1024,1024,1160,1555,237,0,98,4.048,4.047,4.044,0,0,0,6.446,85.28,206.61621297655,114.8294,6,P-GPS,
13000,2020-10-27 05:05:46,13.8121759465736,99.71735786504,114.8294,,,206.61621297655,0,0,3.852690412,10,4,12.187,206.61621297655,114.8294,0.223694,3.852690412,0,0,0,232.4, 2.9, 6.3,0,0,1024,1024,1172,1553,242.6,0,98,4.048,4.047,4.044,0,0,0,6.446,85.28,206.61621297655,114.8294,6,P-GPS,
13100,2020-10-27 05:05:46,13.812176167832,99.7173577550304,115.157484,,,206.94429697655,0,0,3.928149732,10,4,12.187,206.94429697655,115.157484,0.223694,3.928149732,0,0,-0.223694,237.5, 2, 6.2,0,0,1057,1024,1024,1024,248.4,0,98,4.048,4.047,4.044,0,0,0,6.446,85.28,206.94429697655,115.157484,6,P-GPS,
13200,2020-10-27 05:05:46,13.8121764100565,99.7173576257093,115.485568,,,207.27238097655,0,0,4.0140749316,10,4,12.187,207.27238097655,115.485568,0.223694,4.0140749316,0,0,-0.223694,242.6, 1.1, 5.9,0,0,1425,1024,1024,1024,250.8,0,98,4.048,4.047,4.044,0,0,0,6.446,85.28,207.27238097655,115.485568,6,P-GPS,
13300,2020-10-27 05:05:46,13.8121766504897,99.7173576414049,115.813652,,,207.60046497655,0,0,4.0573820196,10,4,12.079,207.60046497655,115.813652,0.223694,4.0573820196,0,0,-0.671082,247.4, -1.4, 4.3,0,0,1684,911,1024,1024,250.8,0,98,4.048,4.047,4.044,0,0,0,6.446,85.28,207.60046497655,115.813652,6,P-GPS,
13400,2020-10-27 05:05:47,13.8121768662862,99.7173575900246,115.813652,,,207.60046497655,0,0,4.1166011816,10,4,12.079,207.60046497655,115.813652,0.223694,4.1166011816,0,0,-0.223694,249.2, -15.4, 4,0,0,1684,834,1024,1024,250.8,0,98,4.048,4.047,4.044,0,0,0,6.446,85.28,207.60046497655,115.813652,6,P-GPS,
13500,2020-10-27 05:05:47,13.8121769503937,99.7173574623218,116.141736,,,207.92854897655,0,0.7158208,4.171259976,10,4,12.079,207.92854897655,116.141736,0.7158208,4.171259976,-0.223694,-0.671082,-0.223694,249.8, -19.7, 2.3,0,0,1684,874,1024,1024,250.8,0,98,4.048,4.047,4.044,0,0,0,6.446,85.28,207.92854897655,116.141736,6,P-GPS,
13600,2020-10-27 05:05:47,13.8121769143905,99.7173570193002,116.46982,,,208.25663297655,0,1.2079476,4.2943899012,10,4,12.079,208.25663297655,116.46982,1.2079476,4.2943899012,-0.447388,-1.11847,0,250.2, -21.9, 1.6,0,0,1684,929,1024,1024,250.8,0,98,4.048,4.047,4.044,0,0,0,6.446,85.28,208.25663297655,116.46982,6,P-GPS,
13700,2020-10-27 05:05:47,13.8121766580636,99.7173562998116,116.797904,,,208.58471697655,0,1.9908766,4.4620080168,10,4,12.079,208.58471697655,116.797904,1.9908766,4.4620080168,-0.894776,-1.789552,-0.223694,250.5, -22.3, 2,0,0,1684,1024,1024,1024,250.8,0,98,4.048,4.047,4.044,0,0,0,6.446,85.28,208.58471697655,116.797904,6,P-GPS,
13800,2020-10-27 05:05:47,13.812176271813,99.7173552554089,116.797904,,,208.58471697655,0,2.9974996,4.7202757416,10,4,12.079,208.58471697655,116.797904,2.9974996,4.7202757416,-1.342164,-2.684328,0,250.4, -22.7, 2.9,0,0,1684,1024,1024,1024,250.8,0,98,4.048,4.047,4.044,0,0,0,6.446,85.28,208.58471697655,116.797904,6,P-GPS,
13900,2020-10-27 05:05:47,13.8121756751495,99.7173537850219,117.125988,,,208.91280097655,0,3.7133204,5.1065946516,10,4,12.079,208.91280097655,117.125988,3.7133204,5.1065946516,-1.565858,-3.35541,0.223694,250.2, -22.6, 3.3,0,0,1684,1024,1024,1024,250.8,0,98,4.048,4.047,4.044,0,0,0,6.446,85.28,208.91280097655,117.125988,6,P-GPS,
14000,2020-10-27 05:05:47,13.8121749864935,99.717352048871,117.125988,,,208.91280097655,0,4.4962494,5.6035434864,10,4,12.079,208.91280097655,117.125988,4.4962494,5.6035434864,-2.013246,-4.026492,0,250.2, -21.3, 3.5,0,0,1684,1024,1024,1024,250.8,0,98,4.048,4.047,4.044,0,0,0,6.446,85.28,208.91280097655,117.125988,6,P-GPS,
14100,2020-10-27 05:05:47,13.8121741708564,99.7173499122692,117.454072,,,209.24088497655,0,5.2120702,6.2604004628,10,4,12.079,209.24088497655,117.454072,5.2120702,6.2604004628,-2.23694,-4.697574,0,250.4, -19.5, 3.6,0,0,1684,1024,1024,1024,250.8,0,98,4.048,4.047,4.044,0,0,0,6.446,85.28,209.24088497655,117.454072,6,P-GPS,
14200,2020-10-27 05:05:47,13.8121732749842,99.7173475775857,117.454072,,,209.24088497655,0,5.704197,7.0155514056,10,4,12.079,209.24088497655,117.454072,5.704197,7.0155514056,-2.460634,-5.144962,0,250.8, -18.1, 3.8,0,0,1684,1024,1024,1024,250.8,0,98,4.048,4.047,4.044,0,0,0,6.446,85.28,209.24088497655,117.454072,6,P-GPS,
14300,2020-10-27 05:05:47,13.8121723904851,99.7173448904876,117.782156,,,209.56896897655,0,5.704197,7.9237863428,10,4,11.885,209.56896897655,117.782156,5.704197,7.9237863428,-2.460634,-5.816044,0.223694,251, -16.7, 3.7,0,0,1684,1024,1024,1024,250.8,0,98,3.99,3.978,4.044,0,0,0,8.46,85.46,209.56896897655,117.782156,6,P-GPS,
14400,2020-10-27 05:05:48,13.8121714222595,99.717342078646,117.782156,,,209.56896897655,0,6.822667,8.8959320432,10,4,11.885,209.56896897655,117.782156,6.822667,8.8959320432,-2.684328,-6.263432,0.223694,250.8, -15.5, 3.6,0,0,1684,1024,1024,1024,250.8,0,98,3.99,3.978,4.044,0,0,0,8.46,85.46,209.56896897655,117.782156,6,P-GPS,
14500,2020-10-27 05:05:48,13.8121705304015,99.7173390824131,117.782156,,,209.56896897655,0,7.0239916,9.9508533368,10,4,11.885,209.56896897655,117.782156,7.0239916,9.9508533368,-2.684328,-6.487126,0.671082,250.8, -15.1, 3.4,0,0,1684,1024,1024,1024,250.8,0,98,3.99,3.978,4.044,0,0,0,8.46,85.46,209.56896897655,117.782156,6,P-GPS,
14600,2020-10-27 05:05:48,13.8121695254708,99.7173359709044,117.454072,,,209.24088497655,0,7.5161184,11.058727388,10,4,11.885,209.56896897655,117.782156,7.5161184,11.058727388,-2.908022,-6.934514,0.894776,251, -14.9, 3.1,0,0,1684,1024,1024,1024,250.8,0,98,3.99,3.978,4.044,0,0,0,8.46,85.46,209.24088497655,117.454072,6,P-GPS,
14700,2020-10-27 05:05:48,13.8121686219758,99.7173325927563,117.454072,,,209.24088497655,0,7.941137,12.268865222,10,4,11.885,209.56896897655,117.782156,7.941137,12.268865222,-2.908022,-7.381902,0.671082,250.9, -14.5, 2.8,0,0,1684,1024,1024,1024,250.8,0,98,3.99,3.978,4.044,0,0,0,8.46,85.46,209.24088497655,117.454072,6,P-GPS,
14800,2020-10-27 05:05:48,13.8121675762282,99.7173291161913,117.454072,,,209.24088497655,0,8.4332638,13.5234256296,10,4,11.885,209.56896897655,117.782156,8.4332638,13.5234256296,-3.131716,-7.82929,0.894776,250.7, -14.6, 2.8,0,0,1684,1024,1024,1024,250.8,0,98,3.99,3.978,4.044,0,0,0,8.46,85.46,209.24088497655,117.454072,6,P-GPS,
14900,2020-10-27 05:05:48,13.8121665836623,99.7173254016002,117.454072,,,209.24088497655,0,8.6345884,14.8660437828,10,4,11.885,209.56896897655,117.782156,8.6345884,14.8660437828,-3.131716,-8.052984,0.894776,250.6, -14.7, 2.8,0,0,1684,1024,1024,1024,250.8,0,98,3.99,3.978,4.044,0,0,0,8.46,85.46,209.24088497655,117.454072,6,P-GPS,
15000,2020-10-27 05:05:48,13.812165445888,99.7173215957624,117.125988,,,208.91280097655,0,9.1490846,16.2504598376,10,4,11.885,209.56896897655,117.782156,9.1490846,16.2504598376,-3.35541,-8.500372,0.894776,251, -14.7, 2.8,0,0,1684,1024,1024,848,250.8,0,98,3.99,3.978,4.044,0,0,0,8.46,85.46,208.91280097655,117.125988,6,P-GPS,
15100,2020-10-27 05:05:48,13.8121642775446,99.717317630845,117.125988,,,208.91280097655,0,9.4398868,17.6963916424,10,4,11.885,209.56896897655,117.782156,9.4398868,17.6963916424,-3.579104,-8.724066,1.11847,250.6, -14.8, 3.1,0,0,1684,1024,1024,780,250.4,0,98,3.99,3.978,4.044,0,0,0,8.46,85.46,208.91280097655,117.125988,6,P-GPS,
15200,2020-10-27 05:05:48,13.8121629890741,99.717313563918,116.797904,,,208.58471697655,0,9.842536,19.1876318476,10,4,11.885,209.56896897655,117.782156,9.842536,19.1876318476,-3.579104,-9.171454,0.671082,250.6, -14.8, 2.8,0,0,1684,1024,1024,726,249.3,0,98,3.99,3.978,4.044,0,0,0,8.46,85.46,208.58471697655,116.797904,6,P-GPS,
15300,2020-10-27 05:05:48,13.8121616389116,99.7173091932999,116.797904,,,208.58471697655,0,10.3346628,20.7922250748,10,4,11.928,209.56896897655,117.782156,10.3346628,20.7922250748,-3.802798,-9.618842,0.671082,250.2, -14.9, 3,0,0,1684,1024,1024,716,247.8,0,98,3.985,3.979,3.976,0,0,0,7.89,85.64,208.58471697655,116.797904,6,P-GPS,
15400,2020-10-27 05:05:49,13.8121601911207,99.7173047542666,116.797904,,,208.58471697655,0,10.625465,22.4295938936,10,4,11.928,209.56896897655,117.782156,10.625465,22.4295938936,-4.026492,-9.842536,0.894776,249.2, -15, 3.4,0,0,1684,1024,1024,828,246,0,98,3.985,3.979,3.976,0,0,0,7.89,85.64,208.58471697655,116.797904,6,P-GPS,
15500,2020-10-27 05:05:49,13.8121586581133,99.717299999434,116.46982,,,208.25663297655,0,11.0504836,24.1855978868,10,4,11.928,209.56896897655,117.782156,11.0504836,24.1855978868,-4.026492,-10.289924,0.894776,247.6, -14.9, 3.7,0,0,1684,1024,1024,1024,245,0,98,3.985,3.979,3.976,0,0,0,7.89,85.64,208.25663297655,116.46982,6,P-GPS,
15600,2020-10-27 05:05:49,13.8121570526596,99.7172952062254,116.46982,,,208.25663297655,0,11.5426104,25.9625008308,10,4,11.928,209.56896897655,117.782156,11.5426104,25.9625008308,-4.250186,-10.737312,1.11847,246.1, -14.9, 3.5,0,0,1684,1024,1024,1024,244.9,0,98,3.985,3.979,3.976,0,0,0,7.89,85.64,208.25663297655,116.46982,6,P-GPS,
15700,2020-10-27 05:05:49,13.81215534067,99.7172900034168,116.141736,,,207.92854897655,0,12.0571066,27.8918644096,10,4,11.928,209.56896897655,117.782156,12.0571066,27.8918644096,-4.47388,-11.1847,0.671082,245.4, -14.8, 3.5,0,0,1684,1024,1024,1024,245,0,98,3.985,3.979,3.976,0,0,0,7.89,85.64,207.92854897655,116.141736,6,P-GPS,
15800,2020-10-27 05:05:49,13.8121535671837,99.7172848079349,116.141736,,,207.92854897655,0,12.2584312,29.8255258888,10,4,11.928,209.56896897655,117.782156,12.2584312,29.8255258888,-4.47388,-11.408394,0.671082,245, -14.8, 3.4,0,0,1684,1024,1024,1024,244.9,0,98,3.985,3.979,3.976,0,0,0,7.89,85.64,207.92854897655,116.141736,6,P-GPS,
15900,2020-10-27 05:05:49,13.8121516174445,99.7172790803409,116.141736,,,207.92854897655,0,12.750558,31.9592529912,10,4,11.928,209.56896897655,117.782156,12.750558,31.9592529912,-4.697574,-11.855782,0.223694,244.8, -15.3, 3.4,0,0,1684,1024,1024,1024,244.9,0,98,3.985,3.979,3.976,0,0,0,7.89,85.64,207.92854897655,116.141736,6,P-GPS,
16000,2020-10-27 05:05:49,13.8121496285835,99.7172734285373,116.141736,,,207.92854897655,0,13.2426848,34.072179568,10,4,11.928,209.56896897655,117.782156,13.2426848,34.072179568,-4.921268,-12.30317,0.223694,244.9, -15.4, 3.3,0,0,1684,1024,1024,1024,244.9,0,98,3.985,3.979,3.976,0,0,0,7.89,85.64,207.92854897655,116.141736,6,P-GPS,
16100,2020-10-27 05:05:49,13.8121473854768,99.7172672619966,115.813652,,,207.60046497655,0,13.757181,36.385827936,10,4,11.928,209.56896897655,117.782156,13.757181,36.385827936,-5.144962,-12.750558,0.447388,244.6, -15.3, 3.5,0,0,1684,1024,1024,1024,244.9,0,98,3.985,3.979,3.976,0,0,0,7.89,85.64,207.60046497655,115.813652,6,P-GPS,
16200,2020-10-27 05:05:49,13.8121451353743,99.7172612216116,115.813652,,,207.60046497655,0,14.0479832,38.659121972,10,4,11.928,209.56896897655,117.782156,14.0479832,38.659121972,-5.368656,-12.974252,0,244.6, -14.9, 3.5,0,0,1684,1024,1024,1024,244.9,0,98,3.985,3.979,3.976,0,0,0,7.89,85.64,207.60046497655,115.813652,6,P-GPS,
16300,2020-10-27 05:05:49,13.8121426681351,99.7172546841381,115.813652,,,207.60046497655,0,14.54011,41.124673232,10,4,12.058,209.56896897655,117.782156,14.54011,41.124673232,-5.59235,-13.42164,0.447388,244.6, -15, 3.5,0,0,1684,1024,1024,1024,244.9,0,98,3.985,3.979,3.976,0,0,0,8.872,85.64,207.60046497655,115.813652,6,P-GPS,
16400,2020-10-27 05:05:49,13.812140218216,99.7172482952282,115.813652,,,207.60046497655,0,14.54011,43.539699556,10,4,12.058,209.56896897655,117.782156,14.54011,43.539699556,-5.816044,-13.869028,0,244.8, -14.9, 3.5,0,0,1684,1024,1024,1024,244.9,0,98,3.985,3.979,3.976,0,0,0,8.872,85.64,207.60046497655,115.813652,6,P-GPS,
16500,2020-10-27 05:05:50,13.8121375193697,99.7172413269464,115.813652,,,207.60046497655,0,15.323039,46.178807252,10,4,12.058,209.56896897655,117.782156,15.323039,46.178807252,-6.039738,-14.092722,0.223694,244.8, -15, 3.7,0,0,1684,1024,1024,978,245,0,98,3.985,3.979,3.976,0,0,0,8.872,85.64,207.60046497655,115.813652,6,P-GPS,
16600,2020-10-27 05:05:50,13.8121348675724,99.7172345556967,115.485568,,,207.27238097655,0,15.8375352,48.748033056,10,4,12.058,209.56896897655,117.782156,15.8375352,48.748033056,-6.263432,-14.54011,0.447388,244.8, -14.6, 3.7,0,0,1684,1024,1024,840,244.9,0,98,3.985,3.979,3.976,0,0,0,8.872,85.64,207.27238097655,115.485568,6,P-GPS,
16700,2020-10-27 05:05:50,13.8121319711698,99.717227202499,115.485568,,,207.27238097655,0,16.2401844,51.541668316,10,4,12.058,209.56896897655,117.782156,16.2401844,51.541668316,-6.263432,-14.987498,0.447388,244.8, -14.3, 3.7,0,0,1684,1024,1024,838,244.5,0,98,3.985,3.979,3.976,0,0,0,8.872,85.64,207.27238097655,115.485568,6,P-GPS,
16800,2020-10-27 05:05:50,13.8121291419633,99.7172200679652,115.485568,,,207.27238097655,0,16.5309866,54.255907248,10,4,12.058,209.56896897655,117.782156,16.5309866,54.255907248,-6.487126,-15.211192,0,244.6, -14.5, 3.7,0,0,1684,1024,1024,837,243.8,0,98,3.985,3.979,3.976,0,0,0,8.872,85.64,207.27238097655,115.485568,6,P-GPS,
16900,2020-10-27 05:05:50,13.8121260949687,99.7172123804286,115.485568,,,207.27238097655,0,17.0454828,57.182088444,10,4,12.058,209.56896897655,117.782156,17.0454828,57.182088444,-6.71082,-15.65858,0,244.2, -14.9, 3.6,0,0,1684,1024,1024,790,243.1,0,98,3.985,3.979,3.976,0,0,0,8.872,85.64,207.27238097655,115.485568,6,P-GPS,
17000,2020-10-27 05:05:50,13.8121231126689,99.7172049305146,115.485568,,,207.27238097655,0,17.336285,60.022311632,10,4,12.058,209.56896897655,117.782156,17.336285,60.022311632,-6.934514,-15.882274,0,243.6, -15.1, 3.7,0,0,1684,1024,1024,741,242.2,0,98,3.985,3.979,3.976,0,0,0,8.872,85.64,207.27238097655,115.485568,6,P-GPS,
17100,2020-10-27 05:05:50,13.8121198751334,99.7171967930346,115.485568,,,207.27238097655,0,17.7389342,63.124345852,10,4,12.058,209.56896897655,117.782156,17.7389342,63.124345852,-6.934514,-16.329662,0,242.9, -15, 4,0,0,1684,1024,1024,727,240.8,0,98,3.985,3.979,3.976,0,0,0,8.872,85.64,207.27238097655,115.485568,6,P-GPS,
17200,2020-10-27 05:05:50,13.8121167132423,99.717188938849,115.485568,,,207.27238097655,0,18.231061,66.123361696,10,4,12.058,209.56896897655,117.782156,18.231061,66.123361696,-7.158208,-16.77705,0,241.9, -15, 3.8,0,0,1684,1024,1024,720,239.1,0,98,3.985,3.979,3.976,0,0,0,8.872,85.64,207.27238097655,115.485568,6,P-GPS,
17300,2020-10-27 05:05:50,13.8121132619963,99.7171804777578,115.485568,,,207.27238097655,0,18.5442326,69.360566524,10,4,11.82,209.56896897655,117.782156,18.5442326,69.360566524,-7.381902,-17.000744,0,240.3, -14.8, 4,0,0,1684,1024,1024,714,237.2,0,98,3.97,3.963,3.956,0,0,0,8.872,85.64,207.27238097655,115.485568,6,P-GPS,
17400,2020-10-27 05:05:51,13.8121099009269,99.7171723237982,115.157484,,,206.94429697655,0,19.0363594,72.48523854,10,4,11.82,209.56896897655,117.782156,19.0363594,72.48523854,-7.605596,-17.448132,0,238.8, -14.5, 3.7,0,0,1684,1024,1024,718,235.3,0,98,3.97,3.963,3.956,0,0,0,8.872,85.64,206.94429697655,115.157484,6,P-GPS,
17500,2020-10-27 05:05:51,13.8121062192365,99.7171636451017,115.157484,,,206.94429697655,0,19.3271616,75.823821324,10,4,11.82,209.56896897655,117.782156,19.3271616,75.823821324,-7.82929,-17.671826,0,237, -14.1, 3.3,0,0,1684,1024,1024,718,233.5,0,98,3.97,3.963,3.956,0,0,0,8.872,85.64,206.94429697655,115.157484,6,P-GPS,
17600,2020-10-27 05:05:51,13.8121026344385,99.7171552856584,115.157484,,,206.94429697655,0,19.6179638,79.045606204,10,4,11.82,209.56896897655,117.782156,19.6179638,79.045606204,-8.052984,-17.89552,0.223694,235.5, -13.7, 3.1,0,0,1684,1024,1024,726,231.6,0,98,3.97,3.963,3.956,0,0,0,8.872,85.64,206.94429697655,115.157484,6,P-GPS,
17700,2020-10-27 05:05:51,13.8120986988607,99.7171462485211,115.485568,,,207.27238097655,0,19.9311354,82.536748048,10,4,11.82,209.56896897655,117.782156,19.9311354,82.536748048,-8.276678,-18.119214,-0.223694,233.6, -13.4, 3.2,0,0,1684,1024,1024,747,229.9,0,98,3.97,3.963,3.956,0,0,0,8.872,85.64,207.27238097655,115.485568,6,P-GPS,
17800,2020-10-27 05:05:51,13.8120948698677,99.7171375845751,115.157484,,,206.94429697655,0,20.3114152,85.891735032,10,4,11.82,209.56896897655,117.782156,20.3114152,85.891735032,-8.724066,-18.342908,0.223694,231.6, -12.8, 3.1,0,0,1684,1024,1024,759,228.3,0,98,3.97,3.963,3.956,0,0,0,8.872,85.64,206.94429697655,115.157484,6,P-GPS,
17900,2020-10-27 05:05:51,13.8120906563015,99.7171283656149,115.157484,,,206.94429697655,0,20.6022174,89.479661656,10,4,11.82,209.56896897655,117.782156,20.6022174,89.479661656,-8.94776,-18.566602,0,229.9, -12.2, 2.4,0,0,1684,1024,1024,766,226.9,0,98,3.97,3.963,3.956,0,0,0,8.872,85.64,206.94429697655,115.157484,6,P-GPS,
18000,2020-10-27 05:05:51,13.8120865682882,99.717119558275,115.157484,,,206.94429697655,0,20.915389,92.91666964,10,4,11.82,209.56896897655,117.782156,20.915389,92.91666964,-9.171454,-18.790296,-0.223694,228.2, -11.9, 1.9,0,0,1684,1024,1024,766,225.6,0,98,3.97,3.963,3.956,0,0,0,8.872,85.64,206.94429697655,115.157484,6,P-GPS,
18100,2020-10-27 05:05:51,13.8120821095239,99.7171102131591,115.485568,,,207.27238097655,0,21.0048666,96.5797275,10,4,11.82,209.56896897655,117.782156,21.0048666,96.5797275,-9.395148,-18.790296,-0.223694,227, -12, 1.5,0,0,1684,1024,1024,764,224.3,0,98,3.97,3.963,3.956,0,0,0,8.872,85.64,207.27238097655,115.485568,6,P-GPS,
18200,2020-10-27 05:05:51,13.8120777775372,99.7171013110524,115.485568,,,207.27238097655,0,21.4075158,100.081368032,10,4,11.82,209.56896897655,117.782156,21.4075158,100.081368032,-9.842536,-19.01399,0,225.7, -11.5, 1.3,0,0,1684,1024,1024,762,223,0,98,3.97,3.963,3.956,0,0,0,8.872,85.64,207.27238097655,115.485568,6,P-GPS,
18300,2020-10-27 05:05:51,13.8120730122801,99.7170918108269,115.485568,,,207.27238097655,0,21.4075158,103.837929832,10,4,11.95,209.56896897655,117.782156,21.4075158,103.837929832,-10.06623,-19.01399,0,224.3, -11.2, 1.2,0,0,1684,1024,1024,760,221.6,0,98,3.958,3.952,3.946,0,0,0,9.366,85.82,207.27238097655,115.485568,6,P-GPS,
18400,2020-10-27 05:05:52,13.8120683937263,99.7170827891635,115.485568,,,207.27238097655,0,21.810165,107.419294776,10,4,11.95,209.56896897655,117.782156,21.810165,107.419294776,-10.289924,-19.237684,-0.223694,223, -10.7, 0.7,0,0,1684,1024,1024,760,220.3,0,98,3.958,3.952,3.946,0,0,0,9.366,85.82,207.27238097655,115.485568,6,P-GPS,
18500,2020-10-27 05:05:52,13.8120633450158,99.7170731965179,115.485568,,,207.27238097655,0,22.033859,111.247050804,10,4,11.95,209.56896897655,117.782156,22.033859,111.247050804,-10.737312,-19.237684,0,221.4, -10.5, -0.1,0,0,1684,1024,1024,760,218.9,0,98,3.958,3.952,3.946,0,0,0,9.366,85.82,207.27238097655,115.485568,6,P-GPS,
18600,2020-10-27 05:05:52,13.8120584368074,99.717064119152,115.157484,,,206.94429697655,0,22.257553,114.888783204,10,4,11.95,209.56896897655,117.782156,22.257553,114.888783204,-11.1847,-19.237684,0.223694,220.2, -9.8, -0.4,0,0,1684,1024,1024,759,217.6,0,98,3.958,3.952,3.946,0,0,0,9.366,85.82,206.94429697655,115.157484,6,P-GPS,
18700,2020-10-27 05:05:52,13.8120530524811,99.7170545162728,115.157484,,,206.94429697655,0,22.3694,118.769032672,10,4,11.95,209.56896897655,117.782156,22.3694,118.769032672,-11.408394,-19.237684,0,219.1, -9.7, -0.8,0,0,1684,1024,1024,760,216.2,0,98,3.958,3.952,3.946,0,0,0,9.366,85.82,206.94429697655,115.157484,6,P-GPS,
18800,2020-10-27 05:05:52,13.8120478307777,99.7170454482053,115.157484,,,206.94429697655,0,22.593094,122.454400244,10,4,11.95,209.56896897655,117.782156,22.593094,122.454400244,-11.855782,-19.237684,0,217.8, -9.4, -0.8,0,0,1684,1024,1024,761,214.8,0,98,3.958,3.952,3.946,0,0,0,9.366,85.82,206.94429697655,115.157484,6,P-GPS,
18900,2020-10-27 05:05:52,13.8120420839207,99.7170358245589,115.157484,,,206.94429697655,0,22.5259858,126.396329504,10,4,11.95,209.56896897655,117.782156,22.593094,126.396329504,-12.079476,-19.01399,0,216.1, -9.2, -1.3,0,0,1684,1024,1024,1024,213.5,0,98,3.958,3.952,3.946,0,0,0,9.366,85.82,206.94429697655,115.157484,6,P-GPS,
19000,2020-10-27 05:05:52,13.8120365276828,99.7170267688424,115.157484,,,206.94429697655,0,22.7720492,130.129269256,10,4,11.95,209.56896897655,117.782156,22.7720492,130.129269256,-12.526864,-19.01399,0,214.8, -8.8, -1.9,0,0,1684,1024,1024,1024,213.3,0,98,3.958,3.952,3.946,0,0,0,9.366,85.82,206.94429697655,115.157484,6,P-GPS,
19100,2020-10-27 05:05:52,13.8120304475419,99.7170172291822,115.157484,,,206.94429697655,0,22.704941,134.097445236,10,4,11.95,209.56896897655,117.782156,22.7720492,134.097445236,-12.750558,-18.790296,0,213.7, -8.5, -2.2,0,0,1684,1024,1024,1024,213.3,0,98,3.958,3.952,3.946,0,0,0,9.366,85.82,206.94429697655,115.157484,6,P-GPS,
